[
  {
    "policy_id": "aboldeapen",
    "adopted_year": 1846,
    "state": "MI",
    "state_name": "Michigan",
    "long": -84.5466,
    "lat": 42.7336,
    "adoption_case": 1,
    "state_num": 21
  },
  {
    "policy_id": "aboldeapen",
    "adopted_year": 1852,
    "state": "RI",
    "state_name": "Rhode Island",
    "long": -71.4087,
    "lat": 41.827,
    "adoption_case": 1,
    "state_num": 38
  },
  {
    "policy_id": "aboldeapen",
    "adopted_year": 1853,
    "state": "WI",
    "state_name": "Wisconsin",
    "long": -89.4007,
    "lat": 43.0632,
    "adoption_case": 1,
    "state_num": 47
  },
  {
    "policy_id": "aboldeapen",
    "adopted_year": 1887,
    "state": "ME",
    "state_name": "Massachusetts",
    "long": -69.7323,
    "lat": 44.3294,
    "adoption_case": 1,
    "state_num": 20
  },
  {
    "policy_id": "aboldeapen",
    "adopted_year": 1911,
    "state": "MN",
    "state_name": "Minnesota",
    "long": -93.1027,
    "lat": 44.9446,
    "adoption_case": 1,
    "state_num": 8
  },
  {
    "policy_id": "aboldeapen",
    "adopted_year": 1915,
    "state": "ND",
    "state_name": "North Dakota",
    "long": -100.7694,
    "lat": 46.8084,
    "adoption_case": 1,
    "state_num": 27
  },
  {
    "policy_id": "aboldeapen",
    "adopted_year": 1957,
    "state": "AK",
    "state_name": "Alaska",
    "long": -134.5721,
    "lat": 58.3637,
    "adoption_case": 1,
    "state_num": 22
  },
  {
    "policy_id": "aboldeapen",
    "adopted_year": 1957,
    "state": "HI",
    "state_name": "Hawaii",
    "long": -157.8219,
    "lat": 21.292,
    "adoption_case": 1,
    "state_num": 30
  },
  {
    "policy_id": "aboldeapen",
    "adopted_year": 1958,
    "state": "DE",
    "state_name": "Delaware",
    "long": -75.5136,
    "lat": 39.1615,
    "adoption_case": 1,
    "state_num": 18
  },
  {
    "policy_id": "aboldeapen",
    "adopted_year": 1964,
    "state": "OR",
    "state_name": "Oregon",
    "long": -123.0272,
    "lat": 44.937,
    "adoption_case": 1,
    "state_num": 3
  },
  {
    "policy_id": "aboldeapen",
    "adopted_year": 1965,
    "state": "IA",
    "state_name": "Iowa",
    "long": -93.6203,
    "lat": 41.5888,
    "adoption_case": 1,
    "state_num": 33
  },
  {
    "policy_id": "aboldeapen",
    "adopted_year": 1965,
    "state": "NY",
    "state_name": "New York",
    "long": -73.7551,
    "lat": 42.6517,
    "adoption_case": 1,
    "state_num": 2
  },
  {
    "policy_id": "aboldeapen",
    "adopted_year": 1965,
    "state": "VT",
    "state_name": "Vermont",
    "long": -72.5716,
    "lat": 44.2627,
    "adoption_case": 1,
    "state_num": 45
  },
  {
    "policy_id": "aboldeapen",
    "adopted_year": 1965,
    "state": "WV",
    "state_name": "West Virginia",
    "long": -81.6354,
    "lat": 38.3533,
    "adoption_case": 1,
    "state_num": 48
  },
  {
    "policy_id": "aboldeapen",
    "adopted_year": 1969,
    "state": "NM",
    "state_name": "New Mexico",
    "long": -105.9381,
    "lat": 35.6816,
    "adoption_case": 1,
    "state_num": 31
  },
  {
    "policy_id": "aborparc",
    "adopted_year": 1981,
    "state": "LA",
    "state_name": "Louisiana",
    "long": -91.1882,
    "lat": 30.4493,
    "adoption_case": 1,
    "state_num": 11
  },
  {
    "policy_id": "aborparc",
    "adopted_year": 1981,
    "state": "MA",
    "state_name": "Maine",
    "long": -71.0568,
    "lat": 42.3589,
    "adoption_case": 1,
    "state_num": 10
  },
  {
    "policy_id": "aborparc",
    "adopted_year": 1982,
    "state": "RI",
    "state_name": "Rhode Island",
    "long": -71.4087,
    "lat": 41.827,
    "adoption_case": 1,
    "state_num": 38
  },
  {
    "policy_id": "aborparc",
    "adopted_year": 1983,
    "state": "MO",
    "state_name": "Missouri",
    "long": -92.1941,
    "lat": 38.5698,
    "adoption_case": 1,
    "state_num": 23
  },
  {
    "policy_id": "aborparc",
    "adopted_year": 1984,
    "state": "IN",
    "state_name": "Indiana",
    "long": -86.1563,
    "lat": 39.767,
    "adoption_case": 1,
    "state_num": 46
  },
  {
    "policy_id": "aborparc",
    "adopted_year": 1987,
    "state": "AL",
    "state_name": "Alabama",
    "long": -86.2996,
    "lat": 32.3754,
    "adoption_case": 1,
    "state_num": 25
  },
  {
    "policy_id": "aborparc",
    "adopted_year": 1989,
    "state": "ME",
    "state_name": "Massachusetts",
    "long": -69.7323,
    "lat": 44.3294,
    "adoption_case": 1,
    "state_num": 20
  },
  {
    "policy_id": "aborparc",
    "adopted_year": 1989,
    "state": "WY",
    "state_name": "Wyoming",
    "long": -104.8165,
    "lat": 41.1389,
    "adoption_case": 1,
    "state_num": 49
  },
  {
    "policy_id": "aborparc",
    "adopted_year": 1990,
    "state": "SC",
    "state_name": "South Carolina",
    "long": -81.0353,
    "lat": 34.0007,
    "adoption_case": 1,
    "state_num": 39
  },
  {
    "policy_id": "aborparc",
    "adopted_year": 1991,
    "state": "MI",
    "state_name": "Michigan",
    "long": -84.5466,
    "lat": 42.7336,
    "adoption_case": 1,
    "state_num": 21
  },
  {
    "policy_id": "aborparc",
    "adopted_year": 1992,
    "state": "WI",
    "state_name": "Wisconsin",
    "long": -89.4007,
    "lat": 43.0632,
    "adoption_case": 1,
    "state_num": 47
  },
  {
    "policy_id": "aborparc",
    "adopted_year": 1994,
    "state": "KY",
    "state_name": "Kentucky",
    "long": -84.8715,
    "lat": 38.1894,
    "adoption_case": 1,
    "state_num": 16
  },
  {
    "policy_id": "aborparc",
    "adopted_year": 1994,
    "state": "PA",
    "state_name": "Pennsylvania",
    "long": -76.8849,
    "lat": 40.274,
    "adoption_case": 1,
    "state_num": 37
  },
  {
    "policy_id": "aborparc",
    "adopted_year": 1996,
    "state": "NC",
    "state_name": "North Carolina",
    "long": -78.6434,
    "lat": 35.7797,
    "adoption_case": 1,
    "state_num": 9
  },
  {
    "policy_id": "aborparc",
    "adopted_year": 1999,
    "state": "TN",
    "state_name": "Tennessee",
    "long": -86.7821,
    "lat": 36.1589,
    "adoption_case": 1,
    "state_num": 41
  },
  {
    "policy_id": "aborparn",
    "adopted_year": 1981,
    "state": "MN",
    "state_name": "Minnesota",
    "long": -93.1027,
    "lat": 44.9446,
    "adoption_case": 1,
    "state_num": 8
  },
  {
    "policy_id": "aborparn",
    "adopted_year": 1981,
    "state": "UT",
    "state_name": "Utah",
    "long": -111.8882,
    "lat": 40.7716,
    "adoption_case": 1,
    "state_num": 43
  },
  {
    "policy_id": "aborparn",
    "adopted_year": 1982,
    "state": "AZ",
    "state_name": "Arizona",
    "long": -112.0738,
    "lat": 33.4483,
    "adoption_case": 1,
    "state_num": 17
  },
  {
    "policy_id": "aborparn",
    "adopted_year": 1984,
    "state": "WV",
    "state_name": "West Virginia",
    "long": -81.6354,
    "lat": 38.3533,
    "adoption_case": 1,
    "state_num": 48
  },
  {
    "policy_id": "aborparn",
    "adopted_year": 1989,
    "state": "AR",
    "state_name": "Arkansas",
    "long": -92.2789,
    "lat": 34.7244,
    "adoption_case": 1,
    "state_num": 44
  },
  {
    "policy_id": "aborparn",
    "adopted_year": 1990,
    "state": "CT",
    "state_name": "Connecticut",
    "long": -72.6732,
    "lat": 41.7665,
    "adoption_case": 1,
    "state_num": 1
  },
  {
    "policy_id": "aborparn",
    "adopted_year": 1990,
    "state": "OH",
    "state_name": "Ohio",
    "long": -83.0007,
    "lat": 39.9622,
    "adoption_case": 1,
    "state_num": 34
  },
  {
    "policy_id": "aborparn",
    "adopted_year": 1991,
    "state": "GA",
    "state_name": "Georgia",
    "long": -84.3897,
    "lat": 33.7545,
    "adoption_case": 1,
    "state_num": 26
  },
  {
    "policy_id": "aborparn",
    "adopted_year": 1991,
    "state": "NE",
    "state_name": "Nebraska",
    "long": -97.548,
    "lat": 41.1786,
    "adoption_case": 1,
    "state_num": 28
  },
  {
    "policy_id": "aborparn",
    "adopted_year": 1992,
    "state": "KS",
    "state_name": "Kansas",
    "long": -95.6815,
    "lat": 39.0474,
    "adoption_case": 1,
    "state_num": 15
  },
  {
    "policy_id": "aborparn",
    "adopted_year": 1992,
    "state": "MD",
    "state_name": "Maryland",
    "long": -76.5197,
    "lat": 38.9693,
    "adoption_case": 1,
    "state_num": 19
  },
  {
    "policy_id": "aborparn",
    "adopted_year": 1992,
    "state": "TN",
    "state_name": "Tennessee",
    "long": -86.7821,
    "lat": 36.1589,
    "adoption_case": 1,
    "state_num": 41
  },
  {
    "policy_id": "aborparn",
    "adopted_year": 1996,
    "state": "DE",
    "state_name": "Delaware",
    "long": -75.5136,
    "lat": 39.1615,
    "adoption_case": 1,
    "state_num": 18
  },
  {
    "policy_id": "aborparn",
    "adopted_year": 1996,
    "state": "ID",
    "state_name": "Idaho",
    "long": -116.2125,
    "lat": 43.6021,
    "adoption_case": 1,
    "state_num": 36
  },
  {
    "policy_id": "aborparn",
    "adopted_year": 1998,
    "state": "SD",
    "state_name": "South Dakota",
    "long": -100.3177,
    "lat": 44.3776,
    "adoption_case": 1,
    "state_num": 40
  },
  {
    "policy_id": "aborparn",
    "adopted_year": 1998,
    "state": "VA",
    "state_name": "Virginia",
    "long": -77.4339,
    "lat": 37.5408,
    "adoption_case": 1,
    "state_num": 13
  },
  {
    "policy_id": "aborparn",
    "adopted_year": 2000,
    "state": "TX",
    "state_name": "Texas",
    "long": -97.7452,
    "lat": 30.2687,
    "adoption_case": 1,
    "state_num": 42
  },
  {
    "policy_id": "aborpreroe",
    "adopted_year": 1966,
    "state": "MS",
    "state_name": "Mississippi",
    "long": -90.178,
    "lat": 32.3122,
    "adoption_case": 1,
    "state_num": 24
  },
  {
    "policy_id": "aborpreroe",
    "adopted_year": 1967,
    "state": "CA",
    "state_name": "California",
    "long": -121.4871,
    "lat": 38.5737,
    "adoption_case": 1,
    "state_num": 0
  },
  {
    "policy_id": "aborpreroe",
    "adopted_year": 1967,
    "state": "CO",
    "state_name": "Colorado",
    "long": -104.9881,
    "lat": 39.7551,
    "adoption_case": 1,
    "state_num": 5
  },
  {
    "policy_id": "aborpreroe",
    "adopted_year": 1967,
    "state": "NC",
    "state_name": "North Carolina",
    "long": -78.6434,
    "lat": 35.7797,
    "adoption_case": 1,
    "state_num": 9
  },
  {
    "policy_id": "aborpreroe",
    "adopted_year": 1968,
    "state": "GA",
    "state_name": "Georgia",
    "long": -84.3897,
    "lat": 33.7545,
    "adoption_case": 1,
    "state_num": 26
  },
  {
    "policy_id": "aborpreroe",
    "adopted_year": 1968,
    "state": "MD",
    "state_name": "Maryland",
    "long": -76.5197,
    "lat": 38.9693,
    "adoption_case": 1,
    "state_num": 19
  },
  {
    "policy_id": "aborpreroe",
    "adopted_year": 1969,
    "state": "AR",
    "state_name": "Arkansas",
    "long": -92.2789,
    "lat": 34.7244,
    "adoption_case": 1,
    "state_num": 44
  },
  {
    "policy_id": "aborpreroe",
    "adopted_year": 1969,
    "state": "DE",
    "state_name": "Delaware",
    "long": -75.5136,
    "lat": 39.1615,
    "adoption_case": 1,
    "state_num": 18
  },
  {
    "policy_id": "aborpreroe",
    "adopted_year": 1969,
    "state": "KS",
    "state_name": "Kansas",
    "long": -95.6815,
    "lat": 39.0474,
    "adoption_case": 1,
    "state_num": 15
  },
  {
    "policy_id": "aborpreroe",
    "adopted_year": 1969,
    "state": "NM",
    "state_name": "New Mexico",
    "long": -105.9381,
    "lat": 35.6816,
    "adoption_case": 1,
    "state_num": 31
  },
  {
    "policy_id": "aborpreroe",
    "adopted_year": 1969,
    "state": "OR",
    "state_name": "Oregon",
    "long": -123.0272,
    "lat": 44.937,
    "adoption_case": 1,
    "state_num": 3
  },
  {
    "policy_id": "aborpreroe",
    "adopted_year": 1970,
    "state": "AK",
    "state_name": "Alaska",
    "long": -134.5721,
    "lat": 58.3637,
    "adoption_case": 1,
    "state_num": 22
  },
  {
    "policy_id": "aborpreroe",
    "adopted_year": 1970,
    "state": "HI",
    "state_name": "Hawaii",
    "long": -157.8219,
    "lat": 21.292,
    "adoption_case": 1,
    "state_num": 30
  },
  {
    "policy_id": "aborpreroe",
    "adopted_year": 1970,
    "state": "NY",
    "state_name": "New York",
    "long": -73.7551,
    "lat": 42.6517,
    "adoption_case": 1,
    "state_num": 2
  },
  {
    "policy_id": "aborpreroe",
    "adopted_year": 1970,
    "state": "SC",
    "state_name": "South Carolina",
    "long": -81.0353,
    "lat": 34.0007,
    "adoption_case": 1,
    "state_num": 39
  },
  {
    "policy_id": "aborpreroe",
    "adopted_year": 1970,
    "state": "VA",
    "state_name": "Virginia",
    "long": -77.4339,
    "lat": 37.5408,
    "adoption_case": 1,
    "state_num": 13
  },
  {
    "policy_id": "aborpreroe",
    "adopted_year": 1970,
    "state": "WA",
    "state_name": "Washington",
    "long": -122.9016,
    "lat": 47.0449,
    "adoption_case": 1,
    "state_num": 4
  },
  {
    "policy_id": "aborpreroe",
    "adopted_year": 1972,
    "state": "FL",
    "state_name": "Florida",
    "long": -84.2806,
    "lat": 30.4382,
    "adoption_case": 1,
    "state_num": 12
  },
  {
    "policy_id": "abortion_consent_1973_199",
    "adopted_year": 1973,
    "state": "ID",
    "state_name": "Idaho",
    "long": -116.2125,
    "lat": 43.6021,
    "adoption_case": 1,
    "state_num": 36
  },
  {
    "policy_id": "abortion_consent_1973_199",
    "adopted_year": 1979,
    "state": "DE",
    "state_name": "Delaware",
    "long": -75.5136,
    "lat": 39.1615,
    "adoption_case": 1,
    "state_num": 18
  },
  {
    "policy_id": "abortion_consent_1973_199",
    "adopted_year": 1980,
    "state": "SD",
    "state_name": "South Dakota",
    "long": -100.3177,
    "lat": 44.3776,
    "adoption_case": 1,
    "state_num": 40
  },
  {
    "policy_id": "abortion_consent_1973_199",
    "adopted_year": 1981,
    "state": "MA",
    "state_name": "Maine",
    "long": -71.0568,
    "lat": 42.3589,
    "adoption_case": 1,
    "state_num": 10
  },
  {
    "policy_id": "abortion_consent_1992_201",
    "adopted_year": 1992,
    "state": "DE",
    "state_name": "Delaware",
    "long": -75.5136,
    "lat": 39.1615,
    "adoption_case": 1,
    "state_num": 18
  },
  {
    "policy_id": "abortion_consent_1992_201",
    "adopted_year": 1992,
    "state": "ID",
    "state_name": "Idaho",
    "long": -116.2125,
    "lat": 43.6021,
    "adoption_case": 1,
    "state_num": 36
  },
  {
    "policy_id": "abortion_consent_1992_201",
    "adopted_year": 1992,
    "state": "MA",
    "state_name": "Maine",
    "long": -71.0568,
    "lat": 42.3589,
    "adoption_case": 1,
    "state_num": 10
  },
  {
    "policy_id": "abortion_consent_1992_201",
    "adopted_year": 1992,
    "state": "MS",
    "state_name": "Mississippi",
    "long": -90.178,
    "lat": 32.3122,
    "adoption_case": 1,
    "state_num": 24
  },
  {
    "policy_id": "abortion_consent_1992_201",
    "adopted_year": 1992,
    "state": "PA",
    "state_name": "Pennsylvania",
    "long": -76.8849,
    "lat": 40.274,
    "adoption_case": 1,
    "state_num": 37
  },
  {
    "policy_id": "abortion_consent_1992_201",
    "adopted_year": 1992,
    "state": "SD",
    "state_name": "South Dakota",
    "long": -100.3177,
    "lat": 44.3776,
    "adoption_case": 1,
    "state_num": 40
  },
  {
    "policy_id": "abortion_consent_1992_201",
    "adopted_year": 1993,
    "state": "NE",
    "state_name": "Nebraska",
    "long": -97.548,
    "lat": 41.1786,
    "adoption_case": 1,
    "state_num": 28
  },
  {
    "policy_id": "abortion_consent_1992_201",
    "adopted_year": 1994,
    "state": "ND",
    "state_name": "North Dakota",
    "long": -100.7694,
    "lat": 46.8084,
    "adoption_case": 1,
    "state_num": 27
  },
  {
    "policy_id": "abortion_consent_1992_201",
    "adopted_year": 1994,
    "state": "OH",
    "state_name": "Ohio",
    "long": -83.0007,
    "lat": 39.9622,
    "adoption_case": 1,
    "state_num": 34
  },
  {
    "policy_id": "abortion_consent_1992_201",
    "adopted_year": 1994,
    "state": "UT",
    "state_name": "Utah",
    "long": -111.8882,
    "lat": 40.7716,
    "adoption_case": 1,
    "state_num": 43
  },
  {
    "policy_id": "abortion_consent_1992_201",
    "adopted_year": 1995,
    "state": "LA",
    "state_name": "Louisiana",
    "long": -91.1882,
    "lat": 30.4493,
    "adoption_case": 1,
    "state_num": 11
  },
  {
    "policy_id": "abortion_consent_1992_201",
    "adopted_year": 1995,
    "state": "SC",
    "state_name": "South Carolina",
    "long": -81.0353,
    "lat": 34.0007,
    "adoption_case": 1,
    "state_num": 39
  },
  {
    "policy_id": "abortion_consent_1992_201",
    "adopted_year": 1997,
    "state": "IN",
    "state_name": "Indiana",
    "long": -86.1563,
    "lat": 39.767,
    "adoption_case": 1,
    "state_num": 46
  },
  {
    "policy_id": "abortion_consent_1992_201",
    "adopted_year": 1997,
    "state": "KS",
    "state_name": "Kansas",
    "long": -95.6815,
    "lat": 39.0474,
    "adoption_case": 1,
    "state_num": 15
  },
  {
    "policy_id": "abortion_consent_1992_201",
    "adopted_year": 1999,
    "state": "MI",
    "state_name": "Michigan",
    "long": -84.5466,
    "lat": 42.7336,
    "adoption_case": 1,
    "state_num": 21
  },
  {
    "policy_id": "abortion_consent_1992_201",
    "adopted_year": 1999,
    "state": "WI",
    "state_name": "Wisconsin",
    "long": -89.4007,
    "lat": 43.0632,
    "adoption_case": 1,
    "state_num": 47
  },
  {
    "policy_id": "abortion_consent_1992_201",
    "adopted_year": 2001,
    "state": "AR",
    "state_name": "Arkansas",
    "long": -92.2789,
    "lat": 34.7244,
    "adoption_case": 1,
    "state_num": 44
  },
  {
    "policy_id": "abortion_consent_1992_201",
    "adopted_year": 2001,
    "state": "KY",
    "state_name": "Kentucky",
    "long": -84.8715,
    "lat": 38.1894,
    "adoption_case": 1,
    "state_num": 16
  },
  {
    "policy_id": "abortion_consent_1992_201",
    "adopted_year": 2001,
    "state": "VA",
    "state_name": "Virginia",
    "long": -77.4339,
    "lat": 37.5408,
    "adoption_case": 1,
    "state_num": 13
  },
  {
    "policy_id": "abortion_consent_1992_201",
    "adopted_year": 2002,
    "state": "AL",
    "state_name": "Alabama",
    "long": -86.2996,
    "lat": 32.3754,
    "adoption_case": 1,
    "state_num": 25
  },
  {
    "policy_id": "abortion_consent_1992_201",
    "adopted_year": 2003,
    "state": "MN",
    "state_name": "Minnesota",
    "long": -93.1027,
    "lat": 44.9446,
    "adoption_case": 1,
    "state_num": 8
  },
  {
    "policy_id": "abortion_consent_1992_201",
    "adopted_year": 2003,
    "state": "TX",
    "state_name": "Texas",
    "long": -97.7452,
    "lat": 30.2687,
    "adoption_case": 1,
    "state_num": 42
  },
  {
    "policy_id": "abortion_consent_1992_201",
    "adopted_year": 2003,
    "state": "WV",
    "state_name": "West Virginia",
    "long": -81.6354,
    "lat": 38.3533,
    "adoption_case": 1,
    "state_num": 48
  },
  {
    "policy_id": "abortion_consent_1992_201",
    "adopted_year": 2004,
    "state": "AK",
    "state_name": "Alaska",
    "long": -134.5721,
    "lat": 58.3637,
    "adoption_case": 1,
    "state_num": 22
  },
  {
    "policy_id": "abortion_consent_1992_201",
    "adopted_year": 2005,
    "state": "GA",
    "state_name": "Georgia",
    "long": -84.3897,
    "lat": 33.7545,
    "adoption_case": 1,
    "state_num": 26
  },
  {
    "policy_id": "abortion_consent_1992_201",
    "adopted_year": 2005,
    "state": "OK",
    "state_name": "Oklahoma",
    "long": -97.4591,
    "lat": 35.4931,
    "adoption_case": 1,
    "state_num": 35
  },
  {
    "policy_id": "abortion_consent_1992_201",
    "adopted_year": 2006,
    "state": "FL",
    "state_name": "Florida",
    "long": -84.2806,
    "lat": 30.4382,
    "adoption_case": 1,
    "state_num": 12
  },
  {
    "policy_id": "abortion_consent_1992_201",
    "adopted_year": 2010,
    "state": "MO",
    "state_name": "Missouri",
    "long": -92.1941,
    "lat": 38.5698,
    "adoption_case": 1,
    "state_num": 23
  },
  {
    "policy_id": "abortion_consent_1992_201",
    "adopted_year": 2011,
    "state": "AZ",
    "state_name": "Arizona",
    "long": -112.0738,
    "lat": 33.4483,
    "adoption_case": 1,
    "state_num": 17
  },
  {
    "policy_id": "abortion_consent_1992_201",
    "adopted_year": 2011,
    "state": "NC",
    "state_name": "North Carolina",
    "long": -78.6434,
    "lat": 35.7797,
    "adoption_case": 1,
    "state_num": 9
  },
  {
    "policy_id": "abortion_medicai",
    "adopted_year": 1981,
    "state": "AK",
    "state_name": "Alaska",
    "long": -134.5721,
    "lat": 58.3637,
    "adoption_case": 1,
    "state_num": 22
  },
  {
    "policy_id": "abortion_medicai",
    "adopted_year": 1981,
    "state": "CA",
    "state_name": "California",
    "long": -121.4871,
    "lat": 38.5737,
    "adoption_case": 1,
    "state_num": 0
  },
  {
    "policy_id": "abortion_medicai",
    "adopted_year": 1981,
    "state": "HI",
    "state_name": "Hawaii",
    "long": -157.8219,
    "lat": 21.292,
    "adoption_case": 1,
    "state_num": 30
  },
  {
    "policy_id": "abortion_medicai",
    "adopted_year": 1981,
    "state": "MA",
    "state_name": "Maine",
    "long": -71.0568,
    "lat": 42.3589,
    "adoption_case": 1,
    "state_num": 10
  },
  {
    "policy_id": "abortion_medicai",
    "adopted_year": 1981,
    "state": "MD",
    "state_name": "Maryland",
    "long": -76.5197,
    "lat": 38.9693,
    "adoption_case": 1,
    "state_num": 19
  },
  {
    "policy_id": "abortion_medicai",
    "adopted_year": 1981,
    "state": "MI",
    "state_name": "Michigan",
    "long": -84.5466,
    "lat": 42.7336,
    "adoption_case": 1,
    "state_num": 21
  },
  {
    "policy_id": "abortion_medicai",
    "adopted_year": 1981,
    "state": "NC",
    "state_name": "North Carolina",
    "long": -78.6434,
    "lat": 35.7797,
    "adoption_case": 1,
    "state_num": 9
  },
  {
    "policy_id": "abortion_medicai",
    "adopted_year": 1981,
    "state": "NY",
    "state_name": "New York",
    "long": -73.7551,
    "lat": 42.6517,
    "adoption_case": 1,
    "state_num": 2
  },
  {
    "policy_id": "abortion_medicai",
    "adopted_year": 1981,
    "state": "WA",
    "state_name": "Washington",
    "long": -122.9016,
    "lat": 47.0449,
    "adoption_case": 1,
    "state_num": 4
  },
  {
    "policy_id": "abortion_medicai",
    "adopted_year": 1981,
    "state": "WV",
    "state_name": "West Virginia",
    "long": -81.6354,
    "lat": 38.3533,
    "adoption_case": 1,
    "state_num": 48
  },
  {
    "policy_id": "abortion_medicai",
    "adopted_year": 1982,
    "state": "NJ",
    "state_name": "New Jersey",
    "long": -74.7642,
    "lat": 40.2202,
    "adoption_case": 1,
    "state_num": 7
  },
  {
    "policy_id": "abortion_medicai",
    "adopted_year": 1983,
    "state": "OR",
    "state_name": "Oregon",
    "long": -123.0272,
    "lat": 44.937,
    "adoption_case": 1,
    "state_num": 3
  },
  {
    "policy_id": "abortion_medicai",
    "adopted_year": 1985,
    "state": "VT",
    "state_name": "Vermont",
    "long": -72.5716,
    "lat": 44.2627,
    "adoption_case": 1,
    "state_num": 45
  },
  {
    "policy_id": "abortion_medicai",
    "adopted_year": 1986,
    "state": "CT",
    "state_name": "Connecticut",
    "long": -72.6732,
    "lat": 41.7665,
    "adoption_case": 1,
    "state_num": 1
  },
  {
    "policy_id": "abortion_medicai",
    "adopted_year": 1994,
    "state": "ID",
    "state_name": "Idaho",
    "long": -116.2125,
    "lat": 43.6021,
    "adoption_case": 1,
    "state_num": 36
  },
  {
    "policy_id": "abortion_medicai",
    "adopted_year": 1994,
    "state": "MN",
    "state_name": "Minnesota",
    "long": -93.1027,
    "lat": 44.9446,
    "adoption_case": 1,
    "state_num": 8
  },
  {
    "policy_id": "abortion_medicai",
    "adopted_year": 1995,
    "state": "IL",
    "state_name": "Illinois",
    "long": -89.6533,
    "lat": 39.8018,
    "adoption_case": 1,
    "state_num": 6
  },
  {
    "policy_id": "abortion_medicai",
    "adopted_year": 1995,
    "state": "MT",
    "state_name": "Montana",
    "long": -112.0205,
    "lat": 46.5911,
    "adoption_case": 1,
    "state_num": 14
  },
  {
    "policy_id": "abortion_medicai",
    "adopted_year": 1998,
    "state": "NM",
    "state_name": "New Mexico",
    "long": -105.9381,
    "lat": 35.6816,
    "adoption_case": 1,
    "state_num": 31
  },
  {
    "policy_id": "abortion_medicai",
    "adopted_year": 2002,
    "state": "AZ",
    "state_name": "Arizona",
    "long": -112.0738,
    "lat": 33.4483,
    "adoption_case": 1,
    "state_num": 17
  },
  {
    "policy_id": "abortion_partial_birt",
    "adopted_year": 1996,
    "state": "MS",
    "state_name": "Mississippi",
    "long": -90.178,
    "lat": 32.3122,
    "adoption_case": 1,
    "state_num": 24
  },
  {
    "policy_id": "abortion_partial_birt",
    "adopted_year": 1996,
    "state": "UT",
    "state_name": "Utah",
    "long": -111.8882,
    "lat": 40.7716,
    "adoption_case": 1,
    "state_num": 43
  },
  {
    "policy_id": "abortion_partial_birt",
    "adopted_year": 1997,
    "state": "AL",
    "state_name": "Alabama",
    "long": -86.2996,
    "lat": 32.3754,
    "adoption_case": 1,
    "state_num": 25
  },
  {
    "policy_id": "abortion_partial_birt",
    "adopted_year": 1997,
    "state": "GA",
    "state_name": "Georgia",
    "long": -84.3897,
    "lat": 33.7545,
    "adoption_case": 1,
    "state_num": 26
  },
  {
    "policy_id": "abortion_partial_birt",
    "adopted_year": 1997,
    "state": "IN",
    "state_name": "Indiana",
    "long": -86.1563,
    "lat": 39.767,
    "adoption_case": 1,
    "state_num": 46
  },
  {
    "policy_id": "abortion_partial_birt",
    "adopted_year": 1997,
    "state": "SC",
    "state_name": "South Carolina",
    "long": -81.0353,
    "lat": 34.0007,
    "adoption_case": 1,
    "state_num": 39
  },
  {
    "policy_id": "abortion_partial_birt",
    "adopted_year": 1997,
    "state": "SD",
    "state_name": "South Dakota",
    "long": -100.3177,
    "lat": 44.3776,
    "adoption_case": 1,
    "state_num": 40
  },
  {
    "policy_id": "abortion_partial_birt",
    "adopted_year": 1997,
    "state": "TN",
    "state_name": "Tennessee",
    "long": -86.7821,
    "lat": 36.1589,
    "adoption_case": 1,
    "state_num": 41
  },
  {
    "policy_id": "abortion_partial_birt",
    "adopted_year": 1998,
    "state": "KS",
    "state_name": "Kansas",
    "long": -95.6815,
    "lat": 39.0474,
    "adoption_case": 1,
    "state_num": 15
  },
  {
    "policy_id": "abortion_partial_birt",
    "adopted_year": 1998,
    "state": "OK",
    "state_name": "Oklahoma",
    "long": -97.4591,
    "lat": 35.4931,
    "adoption_case": 1,
    "state_num": 35
  },
  {
    "policy_id": "abortion_partial_birt",
    "adopted_year": 1998,
    "state": "WI",
    "state_name": "Wisconsin",
    "long": -89.4007,
    "lat": 43.0632,
    "adoption_case": 1,
    "state_num": 47
  },
  {
    "policy_id": "abortion_partial_birt",
    "adopted_year": 1999,
    "state": "ND",
    "state_name": "North Dakota",
    "long": -100.7694,
    "lat": 46.8084,
    "adoption_case": 1,
    "state_num": 27
  },
  {
    "policy_id": "abortion_reform_prero",
    "adopted_year": 1967,
    "state": "CA",
    "state_name": "California",
    "long": -121.4871,
    "lat": 38.5737,
    "adoption_case": 1,
    "state_num": 0
  },
  {
    "policy_id": "abortion_reform_prero",
    "adopted_year": 1967,
    "state": "CO",
    "state_name": "Colorado",
    "long": -104.9881,
    "lat": 39.7551,
    "adoption_case": 1,
    "state_num": 5
  },
  {
    "policy_id": "abortion_reform_prero",
    "adopted_year": 1967,
    "state": "NC",
    "state_name": "North Carolina",
    "long": -78.6434,
    "lat": 35.7797,
    "adoption_case": 1,
    "state_num": 9
  },
  {
    "policy_id": "abortion_reform_prero",
    "adopted_year": 1968,
    "state": "GA",
    "state_name": "Georgia",
    "long": -84.3897,
    "lat": 33.7545,
    "adoption_case": 1,
    "state_num": 26
  },
  {
    "policy_id": "abortion_reform_prero",
    "adopted_year": 1968,
    "state": "MD",
    "state_name": "Maryland",
    "long": -76.5197,
    "lat": 38.9693,
    "adoption_case": 1,
    "state_num": 19
  },
  {
    "policy_id": "abortion_reform_prero",
    "adopted_year": 1969,
    "state": "AR",
    "state_name": "Arkansas",
    "long": -92.2789,
    "lat": 34.7244,
    "adoption_case": 1,
    "state_num": 44
  },
  {
    "policy_id": "abortion_reform_prero",
    "adopted_year": 1969,
    "state": "DE",
    "state_name": "Delaware",
    "long": -75.5136,
    "lat": 39.1615,
    "adoption_case": 1,
    "state_num": 18
  },
  {
    "policy_id": "abortion_reform_prero",
    "adopted_year": 1969,
    "state": "KS",
    "state_name": "Kansas",
    "long": -95.6815,
    "lat": 39.0474,
    "adoption_case": 1,
    "state_num": 15
  },
  {
    "policy_id": "abortion_reform_prero",
    "adopted_year": 1969,
    "state": "NM",
    "state_name": "New Mexico",
    "long": -105.9381,
    "lat": 35.6816,
    "adoption_case": 1,
    "state_num": 31
  },
  {
    "policy_id": "abortion_reform_prero",
    "adopted_year": 1969,
    "state": "OR",
    "state_name": "Oregon",
    "long": -123.0272,
    "lat": 44.937,
    "adoption_case": 1,
    "state_num": 3
  },
  {
    "policy_id": "abortion_reform_prero",
    "adopted_year": 1970,
    "state": "AK",
    "state_name": "Alaska",
    "long": -134.5721,
    "lat": 58.3637,
    "adoption_case": 1,
    "state_num": 22
  },
  {
    "policy_id": "abortion_reform_prero",
    "adopted_year": 1970,
    "state": "HI",
    "state_name": "Hawaii",
    "long": -157.8219,
    "lat": 21.292,
    "adoption_case": 1,
    "state_num": 30
  },
  {
    "policy_id": "abortion_reform_prero",
    "adopted_year": 1970,
    "state": "NY",
    "state_name": "New York",
    "long": -73.7551,
    "lat": 42.6517,
    "adoption_case": 1,
    "state_num": 2
  },
  {
    "policy_id": "abortion_reform_prero",
    "adopted_year": 1970,
    "state": "SC",
    "state_name": "South Carolina",
    "long": -81.0353,
    "lat": 34.0007,
    "adoption_case": 1,
    "state_num": 39
  },
  {
    "policy_id": "abortion_reform_prero",
    "adopted_year": 1970,
    "state": "VA",
    "state_name": "Virginia",
    "long": -77.4339,
    "lat": 37.5408,
    "adoption_case": 1,
    "state_num": 13
  },
  {
    "policy_id": "abortion_reform_prero",
    "adopted_year": 1970,
    "state": "WA",
    "state_name": "Washington",
    "long": -122.9016,
    "lat": 47.0449,
    "adoption_case": 1,
    "state_num": 4
  },
  {
    "policy_id": "abortion_reform_prero",
    "adopted_year": 1972,
    "state": "FL",
    "state_name": "Florida",
    "long": -84.2806,
    "lat": 30.4382,
    "adoption_case": 1,
    "state_num": 12
  },
  {
    "policy_id": "absvot",
    "adopted_year": 1960,
    "state": "NV",
    "state_name": "Nevada",
    "long": -119.7519,
    "lat": 39.1501,
    "adoption_case": 1,
    "state_num": 32
  },
  {
    "policy_id": "absvot",
    "adopted_year": 1969,
    "state": "AR",
    "state_name": "Arkansas",
    "long": -92.2789,
    "lat": 34.7244,
    "adoption_case": 1,
    "state_num": 44
  },
  {
    "policy_id": "absvot",
    "adopted_year": 1970,
    "state": "HI",
    "state_name": "Hawaii",
    "long": -157.8219,
    "lat": 21.292,
    "adoption_case": 1,
    "state_num": 30
  },
  {
    "policy_id": "absvot",
    "adopted_year": 1973,
    "state": "ID",
    "state_name": "Idaho",
    "long": -116.2125,
    "lat": 43.6021,
    "adoption_case": 1,
    "state_num": 36
  },
  {
    "policy_id": "absvot",
    "adopted_year": 1976,
    "state": "WA",
    "state_name": "Washington",
    "long": -122.9016,
    "lat": 47.0449,
    "adoption_case": 1,
    "state_num": 4
  },
  {
    "policy_id": "absvot",
    "adopted_year": 1978,
    "state": "CA",
    "state_name": "California",
    "long": -121.4871,
    "lat": 38.5737,
    "adoption_case": 1,
    "state_num": 0
  },
  {
    "policy_id": "absvot",
    "adopted_year": 1983,
    "state": "OR",
    "state_name": "Oregon",
    "long": -123.0272,
    "lat": 44.937,
    "adoption_case": 1,
    "state_num": 3
  },
  {
    "policy_id": "absvot",
    "adopted_year": 1991,
    "state": "IA",
    "state_name": "Iowa",
    "long": -93.6203,
    "lat": 41.5888,
    "adoption_case": 1,
    "state_num": 33
  },
  {
    "policy_id": "absvot",
    "adopted_year": 1992,
    "state": "AZ",
    "state_name": "Arizona",
    "long": -112.0738,
    "lat": 33.4483,
    "adoption_case": 1,
    "state_num": 17
  },
  {
    "policy_id": "absvot",
    "adopted_year": 1992,
    "state": "CO",
    "state_name": "Colorado",
    "long": -104.9881,
    "lat": 39.7551,
    "adoption_case": 1,
    "state_num": 5
  },
  {
    "policy_id": "absvot",
    "adopted_year": 1992,
    "state": "OK",
    "state_name": "Oklahoma",
    "long": -97.4591,
    "lat": 35.4931,
    "adoption_case": 1,
    "state_num": 35
  },
  {
    "policy_id": "absvot",
    "adopted_year": 1993,
    "state": "VT",
    "state_name": "Vermont",
    "long": -72.5716,
    "lat": 44.2627,
    "adoption_case": 1,
    "state_num": 45
  },
  {
    "policy_id": "absvot",
    "adopted_year": 1994,
    "state": "NE",
    "state_name": "Nebraska",
    "long": -97.548,
    "lat": 41.1786,
    "adoption_case": 1,
    "state_num": 28
  },
  {
    "policy_id": "absvot",
    "adopted_year": 1994,
    "state": "NM",
    "state_name": "New Mexico",
    "long": -105.9381,
    "lat": 35.6816,
    "adoption_case": 1,
    "state_num": 31
  },
  {
    "policy_id": "absvot",
    "adopted_year": 1996,
    "state": "AK",
    "state_name": "Alaska",
    "long": -134.5721,
    "lat": 58.3637,
    "adoption_case": 1,
    "state_num": 22
  },
  {
    "policy_id": "absvot",
    "adopted_year": 1996,
    "state": "KS",
    "state_name": "Kansas",
    "long": -95.6815,
    "lat": 39.0474,
    "adoption_case": 1,
    "state_num": 15
  },
  {
    "policy_id": "absvot",
    "adopted_year": 1997,
    "state": "MT",
    "state_name": "Montana",
    "long": -112.0205,
    "lat": 46.5911,
    "adoption_case": 1,
    "state_num": 14
  },
  {
    "policy_id": "absvot",
    "adopted_year": 1998,
    "state": "FL",
    "state_name": "Florida",
    "long": -84.2806,
    "lat": 30.4382,
    "adoption_case": 1,
    "state_num": 12
  },
  {
    "policy_id": "absvot",
    "adopted_year": 1999,
    "state": "WY",
    "state_name": "Wyoming",
    "long": -104.8165,
    "lat": 41.1389,
    "adoption_case": 1,
    "state_num": 49
  },
  {
    "policy_id": "absvot",
    "adopted_year": 2000,
    "state": "ME",
    "state_name": "Massachusetts",
    "long": -69.7323,
    "lat": 44.3294,
    "adoption_case": 1,
    "state_num": 20
  },
  {
    "policy_id": "absvot",
    "adopted_year": 2000,
    "state": "NC",
    "state_name": "North Carolina",
    "long": -78.6434,
    "lat": 35.7797,
    "adoption_case": 1,
    "state_num": 9
  },
  {
    "policy_id": "absvot",
    "adopted_year": 2000,
    "state": "ND",
    "state_name": "North Dakota",
    "long": -100.7694,
    "lat": 46.8084,
    "adoption_case": 1,
    "state_num": 27
  },
  {
    "policy_id": "absvot",
    "adopted_year": 2000,
    "state": "WI",
    "state_name": "Wisconsin",
    "long": -89.4007,
    "lat": 43.0632,
    "adoption_case": 1,
    "state_num": 47
  },
  {
    "policy_id": "absvot",
    "adopted_year": 2003,
    "state": "GA",
    "state_name": "Georgia",
    "long": -84.3897,
    "lat": 33.7545,
    "adoption_case": 1,
    "state_num": 26
  },
  {
    "policy_id": "absvot",
    "adopted_year": 2003,
    "state": "IN",
    "state_name": "Indiana",
    "long": -86.1563,
    "lat": 39.767,
    "adoption_case": 1,
    "state_num": 46
  },
  {
    "policy_id": "absvot",
    "adopted_year": 2003,
    "state": "SD",
    "state_name": "South Dakota",
    "long": -100.3177,
    "lat": 44.3776,
    "adoption_case": 1,
    "state_num": 40
  },
  {
    "policy_id": "acctlic",
    "adopted_year": 1896,
    "state": "NY",
    "state_name": "New York",
    "long": -73.7551,
    "lat": 42.6517,
    "adoption_case": 1,
    "state_num": 2
  },
  {
    "policy_id": "acctlic",
    "adopted_year": 1897,
    "state": "IL",
    "state_name": "Illinois",
    "long": -89.6533,
    "lat": 39.8018,
    "adoption_case": 1,
    "state_num": 6
  },
  {
    "policy_id": "acctlic",
    "adopted_year": 1900,
    "state": "MD",
    "state_name": "Maryland",
    "long": -76.5197,
    "lat": 38.9693,
    "adoption_case": 1,
    "state_num": 19
  },
  {
    "policy_id": "acctlic",
    "adopted_year": 1901,
    "state": "CA",
    "state_name": "California",
    "long": -121.4871,
    "lat": 38.5737,
    "adoption_case": 1,
    "state_num": 0
  },
  {
    "policy_id": "acctlic",
    "adopted_year": 1903,
    "state": "WA",
    "state_name": "Washington",
    "long": -122.9016,
    "lat": 47.0449,
    "adoption_case": 1,
    "state_num": 4
  },
  {
    "policy_id": "acctlic",
    "adopted_year": 1904,
    "state": "NJ",
    "state_name": "New Jersey",
    "long": -74.7642,
    "lat": 40.2202,
    "adoption_case": 1,
    "state_num": 7
  },
  {
    "policy_id": "acctlic",
    "adopted_year": 1905,
    "state": "MI",
    "state_name": "Michigan",
    "long": -84.5466,
    "lat": 42.7336,
    "adoption_case": 1,
    "state_num": 21
  },
  {
    "policy_id": "acctlic",
    "adopted_year": 1906,
    "state": "PA",
    "state_name": "Pennsylvania",
    "long": -76.8849,
    "lat": 40.274,
    "adoption_case": 1,
    "state_num": 37
  },
  {
    "policy_id": "acctlic",
    "adopted_year": 1906,
    "state": "RI",
    "state_name": "Rhode Island",
    "long": -71.4087,
    "lat": 41.827,
    "adoption_case": 1,
    "state_num": 38
  },
  {
    "policy_id": "acctlic",
    "adopted_year": 1907,
    "state": "CO",
    "state_name": "Colorado",
    "long": -104.9881,
    "lat": 39.7551,
    "adoption_case": 1,
    "state_num": 5
  },
  {
    "policy_id": "acctlic",
    "adopted_year": 1907,
    "state": "CT",
    "state_name": "Connecticut",
    "long": -72.6732,
    "lat": 41.7665,
    "adoption_case": 1,
    "state_num": 1
  },
  {
    "policy_id": "acctlic",
    "adopted_year": 1907,
    "state": "UT",
    "state_name": "Utah",
    "long": -111.8882,
    "lat": 40.7716,
    "adoption_case": 1,
    "state_num": 43
  },
  {
    "policy_id": "acctlic",
    "adopted_year": 1908,
    "state": "GA",
    "state_name": "Georgia",
    "long": -84.3897,
    "lat": 33.7545,
    "adoption_case": 1,
    "state_num": 26
  },
  {
    "policy_id": "acctlic",
    "adopted_year": 1908,
    "state": "LA",
    "state_name": "Louisiana",
    "long": -91.1882,
    "lat": 30.4493,
    "adoption_case": 1,
    "state_num": 11
  },
  {
    "policy_id": "acctlic",
    "adopted_year": 1908,
    "state": "OH",
    "state_name": "Ohio",
    "long": -83.0007,
    "lat": 39.9622,
    "adoption_case": 1,
    "state_num": 34
  },
  {
    "policy_id": "acctlic",
    "adopted_year": 1909,
    "state": "MA",
    "state_name": "Maine",
    "long": -71.0568,
    "lat": 42.3589,
    "adoption_case": 1,
    "state_num": 10
  },
  {
    "policy_id": "acctlic",
    "adopted_year": 1909,
    "state": "MN",
    "state_name": "Minnesota",
    "long": -93.1027,
    "lat": 44.9446,
    "adoption_case": 1,
    "state_num": 8
  },
  {
    "policy_id": "acctlic",
    "adopted_year": 1909,
    "state": "MO",
    "state_name": "Missouri",
    "long": -92.1941,
    "lat": 38.5698,
    "adoption_case": 1,
    "state_num": 23
  },
  {
    "policy_id": "acctlic",
    "adopted_year": 1909,
    "state": "MT",
    "state_name": "Montana",
    "long": -112.0205,
    "lat": 46.5911,
    "adoption_case": 1,
    "state_num": 14
  },
  {
    "policy_id": "acctlic",
    "adopted_year": 1909,
    "state": "NE",
    "state_name": "Nebraska",
    "long": -97.548,
    "lat": 41.1786,
    "adoption_case": 1,
    "state_num": 28
  },
  {
    "policy_id": "acctlic",
    "adopted_year": 1910,
    "state": "VA",
    "state_name": "Virginia",
    "long": -77.4339,
    "lat": 37.5408,
    "adoption_case": 1,
    "state_num": 13
  },
  {
    "policy_id": "acctlic",
    "adopted_year": 1911,
    "state": "WV",
    "state_name": "West Virginia",
    "long": -81.6354,
    "lat": 38.3533,
    "adoption_case": 1,
    "state_num": 48
  },
  {
    "policy_id": "acctlic",
    "adopted_year": 1911,
    "state": "WY",
    "state_name": "Wyoming",
    "long": -104.8165,
    "lat": 41.1389,
    "adoption_case": 1,
    "state_num": 49
  },
  {
    "policy_id": "acctlic",
    "adopted_year": 1912,
    "state": "VT",
    "state_name": "Vermont",
    "long": -72.5716,
    "lat": 44.2627,
    "adoption_case": 1,
    "state_num": 45
  },
  {
    "policy_id": "acctlic",
    "adopted_year": 1913,
    "state": "DE",
    "state_name": "Delaware",
    "long": -75.5136,
    "lat": 39.1615,
    "adoption_case": 1,
    "state_num": 18
  },
  {
    "policy_id": "acctlic",
    "adopted_year": 1913,
    "state": "ME",
    "state_name": "Massachusetts",
    "long": -69.7323,
    "lat": 44.3294,
    "adoption_case": 1,
    "state_num": 20
  },
  {
    "policy_id": "acctlic",
    "adopted_year": 1913,
    "state": "NC",
    "state_name": "North Carolina",
    "long": -78.6434,
    "lat": 35.7797,
    "adoption_case": 1,
    "state_num": 9
  },
  {
    "policy_id": "acctlic",
    "adopted_year": 1913,
    "state": "ND",
    "state_name": "North Dakota",
    "long": -100.7694,
    "lat": 46.8084,
    "adoption_case": 1,
    "state_num": 27
  },
  {
    "policy_id": "acctlic",
    "adopted_year": 1913,
    "state": "NV",
    "state_name": "Nevada",
    "long": -119.7519,
    "lat": 39.1501,
    "adoption_case": 1,
    "state_num": 32
  },
  {
    "policy_id": "acctlic",
    "adopted_year": 1913,
    "state": "TN",
    "state_name": "Tennessee",
    "long": -86.7821,
    "lat": 36.1589,
    "adoption_case": 1,
    "state_num": 41
  },
  {
    "policy_id": "acctlic",
    "adopted_year": 1913,
    "state": "WI",
    "state_name": "Wisconsin",
    "long": -89.4007,
    "lat": 43.0632,
    "adoption_case": 1,
    "state_num": 47
  },
  {
    "policy_id": "acctlic",
    "adopted_year": 1915,
    "state": "AR",
    "state_name": "Arkansas",
    "long": -92.2789,
    "lat": 34.7244,
    "adoption_case": 1,
    "state_num": 44
  },
  {
    "policy_id": "acctlic",
    "adopted_year": 1915,
    "state": "IA",
    "state_name": "Iowa",
    "long": -93.6203,
    "lat": 41.5888,
    "adoption_case": 1,
    "state_num": 33
  },
  {
    "policy_id": "acctlic",
    "adopted_year": 1915,
    "state": "KS",
    "state_name": "Kansas",
    "long": -95.6815,
    "lat": 39.0474,
    "adoption_case": 1,
    "state_num": 15
  },
  {
    "policy_id": "acctlic",
    "adopted_year": 1915,
    "state": "OR",
    "state_name": "Oregon",
    "long": -123.0272,
    "lat": 44.937,
    "adoption_case": 1,
    "state_num": 3
  },
  {
    "policy_id": "acctlic",
    "adopted_year": 1915,
    "state": "SC",
    "state_name": "South Carolina",
    "long": -81.0353,
    "lat": 34.0007,
    "adoption_case": 1,
    "state_num": 39
  },
  {
    "policy_id": "acctlic",
    "adopted_year": 1915,
    "state": "TX",
    "state_name": "Texas",
    "long": -97.7452,
    "lat": 30.2687,
    "adoption_case": 1,
    "state_num": 42
  },
  {
    "policy_id": "acctlic",
    "adopted_year": 1916,
    "state": "KY",
    "state_name": "Kentucky",
    "long": -84.8715,
    "lat": 38.1894,
    "adoption_case": 1,
    "state_num": 16
  },
  {
    "policy_id": "acctlic",
    "adopted_year": 1917,
    "state": "ID",
    "state_name": "Idaho",
    "long": -116.2125,
    "lat": 43.6021,
    "adoption_case": 1,
    "state_num": 36
  },
  {
    "policy_id": "acctlic",
    "adopted_year": 1917,
    "state": "NH",
    "state_name": "New Hampshire",
    "long": -71.5597,
    "lat": 43.2314,
    "adoption_case": 1,
    "state_num": 29
  },
  {
    "policy_id": "acctlic",
    "adopted_year": 1917,
    "state": "OK",
    "state_name": "Oklahoma",
    "long": -97.4591,
    "lat": 35.4931,
    "adoption_case": 1,
    "state_num": 35
  },
  {
    "policy_id": "acctlic",
    "adopted_year": 1917,
    "state": "SD",
    "state_name": "South Dakota",
    "long": -100.3177,
    "lat": 44.3776,
    "adoption_case": 1,
    "state_num": 40
  },
  {
    "policy_id": "acctlic",
    "adopted_year": 1919,
    "state": "AL",
    "state_name": "Alabama",
    "long": -86.2996,
    "lat": 32.3754,
    "adoption_case": 1,
    "state_num": 25
  },
  {
    "policy_id": "acctlic",
    "adopted_year": 1919,
    "state": "AZ",
    "state_name": "Arizona",
    "long": -112.0738,
    "lat": 33.4483,
    "adoption_case": 1,
    "state_num": 17
  },
  {
    "policy_id": "acctlic",
    "adopted_year": 1920,
    "state": "MS",
    "state_name": "Mississippi",
    "long": -90.178,
    "lat": 32.3122,
    "adoption_case": 1,
    "state_num": 24
  },
  {
    "policy_id": "acctlic",
    "adopted_year": 1921,
    "state": "NM",
    "state_name": "New Mexico",
    "long": -105.9381,
    "lat": 35.6816,
    "adoption_case": 1,
    "state_num": 31
  },
  {
    "policy_id": "acctlic",
    "adopted_year": 1929,
    "state": "IN",
    "state_name": "Indiana",
    "long": -86.1563,
    "lat": 39.767,
    "adoption_case": 1,
    "state_num": 46
  },
  {
    "policy_id": "acctlic",
    "adopted_year": 1951,
    "state": "FL",
    "state_name": "Florida",
    "long": -84.2806,
    "lat": 30.4382,
    "adoption_case": 1,
    "state_num": 12
  },
  {
    "policy_id": "adawork",
    "adopted_year": 1950,
    "state": "AZ",
    "state_name": "Arizona",
    "long": -112.0738,
    "lat": 33.4483,
    "adoption_case": 1,
    "state_num": 17
  },
  {
    "policy_id": "adawork",
    "adopted_year": 1950,
    "state": "IL",
    "state_name": "Illinois",
    "long": -89.6533,
    "lat": 39.8018,
    "adoption_case": 1,
    "state_num": 6
  },
  {
    "policy_id": "adawork",
    "adopted_year": 1950,
    "state": "NE",
    "state_name": "Nebraska",
    "long": -97.548,
    "lat": 41.1786,
    "adoption_case": 1,
    "state_num": 28
  },
  {
    "policy_id": "adawork",
    "adopted_year": 1953,
    "state": "AL",
    "state_name": "Alabama",
    "long": -86.2996,
    "lat": 32.3754,
    "adoption_case": 1,
    "state_num": 25
  },
  {
    "policy_id": "adawork",
    "adopted_year": 1953,
    "state": "AR",
    "state_name": "Arkansas",
    "long": -92.2789,
    "lat": 34.7244,
    "adoption_case": 1,
    "state_num": 44
  },
  {
    "policy_id": "adawork",
    "adopted_year": 1953,
    "state": "CA",
    "state_name": "California",
    "long": -121.4871,
    "lat": 38.5737,
    "adoption_case": 1,
    "state_num": 0
  },
  {
    "policy_id": "adawork",
    "adopted_year": 1953,
    "state": "GA",
    "state_name": "Georgia",
    "long": -84.3897,
    "lat": 33.7545,
    "adoption_case": 1,
    "state_num": 26
  },
  {
    "policy_id": "adawork",
    "adopted_year": 1953,
    "state": "MS",
    "state_name": "Mississippi",
    "long": -90.178,
    "lat": 32.3122,
    "adoption_case": 1,
    "state_num": 24
  },
  {
    "policy_id": "adawork",
    "adopted_year": 1953,
    "state": "RI",
    "state_name": "Rhode Island",
    "long": -71.4087,
    "lat": 41.827,
    "adoption_case": 1,
    "state_num": 38
  },
  {
    "policy_id": "adawork",
    "adopted_year": 1956,
    "state": "FL",
    "state_name": "Florida",
    "long": -84.2806,
    "lat": 30.4382,
    "adoption_case": 1,
    "state_num": 12
  },
  {
    "policy_id": "adawork",
    "adopted_year": 1956,
    "state": "MI",
    "state_name": "Michigan",
    "long": -84.5466,
    "lat": 42.7336,
    "adoption_case": 1,
    "state_num": 21
  },
  {
    "policy_id": "adawork",
    "adopted_year": 1956,
    "state": "NH",
    "state_name": "New Hampshire",
    "long": -71.5597,
    "lat": 43.2314,
    "adoption_case": 1,
    "state_num": 29
  },
  {
    "policy_id": "adawork",
    "adopted_year": 1956,
    "state": "NM",
    "state_name": "New Mexico",
    "long": -105.9381,
    "lat": 35.6816,
    "adoption_case": 1,
    "state_num": 31
  },
  {
    "policy_id": "adawork",
    "adopted_year": 1956,
    "state": "SC",
    "state_name": "South Carolina",
    "long": -81.0353,
    "lat": 34.0007,
    "adoption_case": 1,
    "state_num": 39
  },
  {
    "policy_id": "adawork",
    "adopted_year": 1956,
    "state": "TN",
    "state_name": "Tennessee",
    "long": -86.7821,
    "lat": 36.1589,
    "adoption_case": 1,
    "state_num": 41
  },
  {
    "policy_id": "adawork",
    "adopted_year": 1956,
    "state": "TX",
    "state_name": "Texas",
    "long": -97.7452,
    "lat": 30.2687,
    "adoption_case": 1,
    "state_num": 42
  },
  {
    "policy_id": "adawork",
    "adopted_year": 1957,
    "state": "MO",
    "state_name": "Missouri",
    "long": -92.1941,
    "lat": 38.5698,
    "adoption_case": 1,
    "state_num": 23
  },
  {
    "policy_id": "adawork",
    "adopted_year": 1957,
    "state": "WV",
    "state_name": "West Virginia",
    "long": -81.6354,
    "lat": 38.3533,
    "adoption_case": 1,
    "state_num": 48
  },
  {
    "policy_id": "adawork",
    "adopted_year": 1962,
    "state": "NC",
    "state_name": "North Carolina",
    "long": -78.6434,
    "lat": 35.7797,
    "adoption_case": 1,
    "state_num": 9
  },
  {
    "policy_id": "adawork",
    "adopted_year": 1962,
    "state": "PA",
    "state_name": "Pennsylvania",
    "long": -76.8849,
    "lat": 40.274,
    "adoption_case": 1,
    "state_num": 37
  },
  {
    "policy_id": "adawork",
    "adopted_year": 1962,
    "state": "WA",
    "state_name": "Washington",
    "long": -122.9016,
    "lat": 47.0449,
    "adoption_case": 1,
    "state_num": 4
  },
  {
    "policy_id": "adawork",
    "adopted_year": 1964,
    "state": "KS",
    "state_name": "Kansas",
    "long": -95.6815,
    "lat": 39.0474,
    "adoption_case": 1,
    "state_num": 15
  },
  {
    "policy_id": "adawork",
    "adopted_year": 1964,
    "state": "MA",
    "state_name": "Maine",
    "long": -71.0568,
    "lat": 42.3589,
    "adoption_case": 1,
    "state_num": 10
  },
  {
    "policy_id": "adawork",
    "adopted_year": 1964,
    "state": "ND",
    "state_name": "North Dakota",
    "long": -100.7694,
    "lat": 46.8084,
    "adoption_case": 1,
    "state_num": 27
  },
  {
    "policy_id": "adawork",
    "adopted_year": 1964,
    "state": "NY",
    "state_name": "New York",
    "long": -73.7551,
    "lat": 42.6517,
    "adoption_case": 1,
    "state_num": 2
  },
  {
    "policy_id": "adawork",
    "adopted_year": 1964,
    "state": "OK",
    "state_name": "Oklahoma",
    "long": -97.4591,
    "lat": 35.4931,
    "adoption_case": 1,
    "state_num": 35
  },
  {
    "policy_id": "adawork",
    "adopted_year": 1967,
    "state": "LA",
    "state_name": "Louisiana",
    "long": -91.1882,
    "lat": 30.4493,
    "adoption_case": 1,
    "state_num": 11
  },
  {
    "policy_id": "adawork",
    "adopted_year": 1967,
    "state": "VT",
    "state_name": "Vermont",
    "long": -72.5716,
    "lat": 44.2627,
    "adoption_case": 1,
    "state_num": 45
  },
  {
    "policy_id": "adc",
    "adopted_year": 1936,
    "state": "AL",
    "state_name": "Alabama",
    "long": -86.2996,
    "lat": 32.3754,
    "adoption_case": 1,
    "state_num": 25
  },
  {
    "policy_id": "adc",
    "adopted_year": 1936,
    "state": "AR",
    "state_name": "Arkansas",
    "long": -92.2789,
    "lat": 34.7244,
    "adoption_case": 1,
    "state_num": 44
  },
  {
    "policy_id": "adc",
    "adopted_year": 1936,
    "state": "AZ",
    "state_name": "Arizona",
    "long": -112.0738,
    "lat": 33.4483,
    "adoption_case": 1,
    "state_num": 17
  },
  {
    "policy_id": "adc",
    "adopted_year": 1936,
    "state": "CA",
    "state_name": "California",
    "long": -121.4871,
    "lat": 38.5737,
    "adoption_case": 1,
    "state_num": 0
  },
  {
    "policy_id": "adc",
    "adopted_year": 1936,
    "state": "CO",
    "state_name": "Colorado",
    "long": -104.9881,
    "lat": 39.7551,
    "adoption_case": 1,
    "state_num": 5
  },
  {
    "policy_id": "adc",
    "adopted_year": 1936,
    "state": "DE",
    "state_name": "Delaware",
    "long": -75.5136,
    "lat": 39.1615,
    "adoption_case": 1,
    "state_num": 18
  },
  {
    "policy_id": "adc",
    "adopted_year": 1936,
    "state": "ID",
    "state_name": "Idaho",
    "long": -116.2125,
    "lat": 43.6021,
    "adoption_case": 1,
    "state_num": 36
  },
  {
    "policy_id": "adc",
    "adopted_year": 1936,
    "state": "IN",
    "state_name": "Indiana",
    "long": -86.1563,
    "lat": 39.767,
    "adoption_case": 1,
    "state_num": 46
  },
  {
    "policy_id": "adc",
    "adopted_year": 1936,
    "state": "LA",
    "state_name": "Louisiana",
    "long": -91.1882,
    "lat": 30.4493,
    "adoption_case": 1,
    "state_num": 11
  },
  {
    "policy_id": "adc",
    "adopted_year": 1936,
    "state": "MA",
    "state_name": "Maine",
    "long": -71.0568,
    "lat": 42.3589,
    "adoption_case": 1,
    "state_num": 10
  },
  {
    "policy_id": "adc",
    "adopted_year": 1936,
    "state": "MD",
    "state_name": "Maryland",
    "long": -76.5197,
    "lat": 38.9693,
    "adoption_case": 1,
    "state_num": 19
  },
  {
    "policy_id": "adc",
    "adopted_year": 1936,
    "state": "ME",
    "state_name": "Massachusetts",
    "long": -69.7323,
    "lat": 44.3294,
    "adoption_case": 1,
    "state_num": 20
  },
  {
    "policy_id": "adc",
    "adopted_year": 1936,
    "state": "MI",
    "state_name": "Michigan",
    "long": -84.5466,
    "lat": 42.7336,
    "adoption_case": 1,
    "state_num": 21
  },
  {
    "policy_id": "adc",
    "adopted_year": 1936,
    "state": "NE",
    "state_name": "Nebraska",
    "long": -97.548,
    "lat": 41.1786,
    "adoption_case": 1,
    "state_num": 28
  },
  {
    "policy_id": "adc",
    "adopted_year": 1936,
    "state": "NH",
    "state_name": "New Hampshire",
    "long": -71.5597,
    "lat": 43.2314,
    "adoption_case": 1,
    "state_num": 29
  },
  {
    "policy_id": "adc",
    "adopted_year": 1936,
    "state": "NJ",
    "state_name": "New Jersey",
    "long": -74.7642,
    "lat": 40.2202,
    "adoption_case": 1,
    "state_num": 7
  },
  {
    "policy_id": "adc",
    "adopted_year": 1936,
    "state": "NM",
    "state_name": "New Mexico",
    "long": -105.9381,
    "lat": 35.6816,
    "adoption_case": 1,
    "state_num": 31
  },
  {
    "policy_id": "adc",
    "adopted_year": 1936,
    "state": "OH",
    "state_name": "Ohio",
    "long": -83.0007,
    "lat": 39.9622,
    "adoption_case": 1,
    "state_num": 34
  },
  {
    "policy_id": "adc",
    "adopted_year": 1936,
    "state": "OK",
    "state_name": "Oklahoma",
    "long": -97.4591,
    "lat": 35.4931,
    "adoption_case": 1,
    "state_num": 35
  },
  {
    "policy_id": "adc",
    "adopted_year": 1936,
    "state": "PA",
    "state_name": "Pennsylvania",
    "long": -76.8849,
    "lat": 40.274,
    "adoption_case": 1,
    "state_num": 37
  },
  {
    "policy_id": "adc",
    "adopted_year": 1936,
    "state": "UT",
    "state_name": "Utah",
    "long": -111.8882,
    "lat": 40.7716,
    "adoption_case": 1,
    "state_num": 43
  },
  {
    "policy_id": "adc",
    "adopted_year": 1936,
    "state": "VT",
    "state_name": "Vermont",
    "long": -72.5716,
    "lat": 44.2627,
    "adoption_case": 1,
    "state_num": 45
  },
  {
    "policy_id": "adc",
    "adopted_year": 1936,
    "state": "WA",
    "state_name": "Washington",
    "long": -122.9016,
    "lat": 47.0449,
    "adoption_case": 1,
    "state_num": 4
  },
  {
    "policy_id": "adc",
    "adopted_year": 1936,
    "state": "WI",
    "state_name": "Wisconsin",
    "long": -89.4007,
    "lat": 43.0632,
    "adoption_case": 1,
    "state_num": 47
  },
  {
    "policy_id": "adc",
    "adopted_year": 1936,
    "state": "WV",
    "state_name": "West Virginia",
    "long": -81.6354,
    "lat": 38.3533,
    "adoption_case": 1,
    "state_num": 48
  },
  {
    "policy_id": "adc",
    "adopted_year": 1936,
    "state": "WY",
    "state_name": "Wyoming",
    "long": -104.8165,
    "lat": 41.1389,
    "adoption_case": 1,
    "state_num": 49
  },
  {
    "policy_id": "adc",
    "adopted_year": 1937,
    "state": "GA",
    "state_name": "Georgia",
    "long": -84.3897,
    "lat": 33.7545,
    "adoption_case": 1,
    "state_num": 26
  },
  {
    "policy_id": "adc",
    "adopted_year": 1937,
    "state": "KS",
    "state_name": "Kansas",
    "long": -95.6815,
    "lat": 39.0474,
    "adoption_case": 1,
    "state_num": 15
  },
  {
    "policy_id": "adc",
    "adopted_year": 1937,
    "state": "MN",
    "state_name": "Minnesota",
    "long": -93.1027,
    "lat": 44.9446,
    "adoption_case": 1,
    "state_num": 8
  },
  {
    "policy_id": "adc",
    "adopted_year": 1937,
    "state": "MO",
    "state_name": "Missouri",
    "long": -92.1941,
    "lat": 38.5698,
    "adoption_case": 1,
    "state_num": 23
  },
  {
    "policy_id": "adc",
    "adopted_year": 1937,
    "state": "MT",
    "state_name": "Montana",
    "long": -112.0205,
    "lat": 46.5911,
    "adoption_case": 1,
    "state_num": 14
  },
  {
    "policy_id": "adc",
    "adopted_year": 1937,
    "state": "NC",
    "state_name": "North Carolina",
    "long": -78.6434,
    "lat": 35.7797,
    "adoption_case": 1,
    "state_num": 9
  },
  {
    "policy_id": "adc",
    "adopted_year": 1937,
    "state": "ND",
    "state_name": "North Dakota",
    "long": -100.7694,
    "lat": 46.8084,
    "adoption_case": 1,
    "state_num": 27
  },
  {
    "policy_id": "adc",
    "adopted_year": 1937,
    "state": "NY",
    "state_name": "New York",
    "long": -73.7551,
    "lat": 42.6517,
    "adoption_case": 1,
    "state_num": 2
  },
  {
    "policy_id": "adc",
    "adopted_year": 1937,
    "state": "OR",
    "state_name": "Oregon",
    "long": -123.0272,
    "lat": 44.937,
    "adoption_case": 1,
    "state_num": 3
  },
  {
    "policy_id": "adc",
    "adopted_year": 1937,
    "state": "RI",
    "state_name": "Rhode Island",
    "long": -71.4087,
    "lat": 41.827,
    "adoption_case": 1,
    "state_num": 38
  },
  {
    "policy_id": "adc",
    "adopted_year": 1937,
    "state": "SC",
    "state_name": "South Carolina",
    "long": -81.0353,
    "lat": 34.0007,
    "adoption_case": 1,
    "state_num": 39
  },
  {
    "policy_id": "adc",
    "adopted_year": 1937,
    "state": "TN",
    "state_name": "Tennessee",
    "long": -86.7821,
    "lat": 36.1589,
    "adoption_case": 1,
    "state_num": 41
  },
  {
    "policy_id": "adc",
    "adopted_year": 1938,
    "state": "FL",
    "state_name": "Florida",
    "long": -84.2806,
    "lat": 30.4382,
    "adoption_case": 1,
    "state_num": 12
  },
  {
    "policy_id": "adc",
    "adopted_year": 1938,
    "state": "VA",
    "state_name": "Virginia",
    "long": -77.4339,
    "lat": 37.5408,
    "adoption_case": 1,
    "state_num": 13
  },
  {
    "policy_id": "adc",
    "adopted_year": 1940,
    "state": "SD",
    "state_name": "South Dakota",
    "long": -100.3177,
    "lat": 44.3776,
    "adoption_case": 1,
    "state_num": 40
  },
  {
    "policy_id": "adc",
    "adopted_year": 1941,
    "state": "CT",
    "state_name": "Connecticut",
    "long": -72.6732,
    "lat": 41.7665,
    "adoption_case": 1,
    "state_num": 1
  },
  {
    "policy_id": "adc",
    "adopted_year": 1941,
    "state": "IL",
    "state_name": "Illinois",
    "long": -89.6533,
    "lat": 39.8018,
    "adoption_case": 1,
    "state_num": 6
  },
  {
    "policy_id": "adc",
    "adopted_year": 1941,
    "state": "MS",
    "state_name": "Mississippi",
    "long": -90.178,
    "lat": 32.3122,
    "adoption_case": 1,
    "state_num": 24
  },
  {
    "policy_id": "adc",
    "adopted_year": 1941,
    "state": "TX",
    "state_name": "Texas",
    "long": -97.7452,
    "lat": 30.2687,
    "adoption_case": 1,
    "state_num": 42
  },
  {
    "policy_id": "adc",
    "adopted_year": 1942,
    "state": "KY",
    "state_name": "Kentucky",
    "long": -84.8715,
    "lat": 38.1894,
    "adoption_case": 1,
    "state_num": 16
  },
  {
    "policy_id": "adc",
    "adopted_year": 1943,
    "state": "IA",
    "state_name": "Iowa",
    "long": -93.6203,
    "lat": 41.5888,
    "adoption_case": 1,
    "state_num": 33
  },
  {
    "policy_id": "adc",
    "adopted_year": 1955,
    "state": "NV",
    "state_name": "Nevada",
    "long": -119.7519,
    "lat": 39.1501,
    "adoption_case": 1,
    "state_num": 32
  },
  {
    "policy_id": "adcom",
    "adopted_year": 1925,
    "state": "FL",
    "state_name": "Florida",
    "long": -84.2806,
    "lat": 30.4382,
    "adoption_case": 1,
    "state_num": 12
  },
  {
    "policy_id": "adcom",
    "adopted_year": 1925,
    "state": "ND",
    "state_name": "North Dakota",
    "long": -100.7694,
    "lat": 46.8084,
    "adoption_case": 1,
    "state_num": 27
  },
  {
    "policy_id": "adcom",
    "adopted_year": 1927,
    "state": "ME",
    "state_name": "Massachusetts",
    "long": -69.7323,
    "lat": 44.3294,
    "adoption_case": 1,
    "state_num": 20
  },
  {
    "policy_id": "adcom",
    "adopted_year": 1927,
    "state": "WY",
    "state_name": "Wyoming",
    "long": -104.8165,
    "lat": 41.1389,
    "adoption_case": 1,
    "state_num": 49
  },
  {
    "policy_id": "adcom",
    "adopted_year": 1929,
    "state": "MI",
    "state_name": "Michigan",
    "long": -84.5466,
    "lat": 42.7336,
    "adoption_case": 1,
    "state_num": 21
  },
  {
    "policy_id": "adcom",
    "adopted_year": 1933,
    "state": "MN",
    "state_name": "Minnesota",
    "long": -93.1027,
    "lat": 44.9446,
    "adoption_case": 1,
    "state_num": 8
  },
  {
    "policy_id": "adcom",
    "adopted_year": 1933,
    "state": "VT",
    "state_name": "Vermont",
    "long": -72.5716,
    "lat": 44.2627,
    "adoption_case": 1,
    "state_num": 45
  },
  {
    "policy_id": "adcom",
    "adopted_year": 1934,
    "state": "VA",
    "state_name": "Virginia",
    "long": -77.4339,
    "lat": 37.5408,
    "adoption_case": 1,
    "state_num": 13
  },
  {
    "policy_id": "adcom",
    "adopted_year": 1935,
    "state": "CO",
    "state_name": "Colorado",
    "long": -104.9881,
    "lat": 39.7551,
    "adoption_case": 1,
    "state_num": 5
  },
  {
    "policy_id": "adcom",
    "adopted_year": 1935,
    "state": "NH",
    "state_name": "New Hampshire",
    "long": -71.5597,
    "lat": 43.2314,
    "adoption_case": 1,
    "state_num": 29
  },
  {
    "policy_id": "adcom",
    "adopted_year": 1935,
    "state": "NM",
    "state_name": "New Mexico",
    "long": -105.9381,
    "lat": 35.6816,
    "adoption_case": 1,
    "state_num": 31
  },
  {
    "policy_id": "adcom",
    "adopted_year": 1935,
    "state": "NY",
    "state_name": "New York",
    "long": -73.7551,
    "lat": 42.6517,
    "adoption_case": 1,
    "state_num": 2
  },
  {
    "policy_id": "adcom",
    "adopted_year": 1935,
    "state": "OR",
    "state_name": "Oregon",
    "long": -123.0272,
    "lat": 44.937,
    "adoption_case": 1,
    "state_num": 3
  },
  {
    "policy_id": "adcom",
    "adopted_year": 1936,
    "state": "KY",
    "state_name": "Kentucky",
    "long": -84.8715,
    "lat": 38.1894,
    "adoption_case": 1,
    "state_num": 16
  },
  {
    "policy_id": "adcom",
    "adopted_year": 1936,
    "state": "LA",
    "state_name": "Louisiana",
    "long": -91.1882,
    "lat": 30.4493,
    "adoption_case": 1,
    "state_num": 11
  },
  {
    "policy_id": "adcom",
    "adopted_year": 1936,
    "state": "MS",
    "state_name": "Mississippi",
    "long": -90.178,
    "lat": 32.3122,
    "adoption_case": 1,
    "state_num": 24
  },
  {
    "policy_id": "adcom",
    "adopted_year": 1936,
    "state": "MT",
    "state_name": "Montana",
    "long": -112.0205,
    "lat": 46.5911,
    "adoption_case": 1,
    "state_num": 14
  },
  {
    "policy_id": "adcom",
    "adopted_year": 1936,
    "state": "NV",
    "state_name": "Nevada",
    "long": -119.7519,
    "lat": 39.1501,
    "adoption_case": 1,
    "state_num": 32
  },
  {
    "policy_id": "adcom",
    "adopted_year": 1936,
    "state": "UT",
    "state_name": "Utah",
    "long": -111.8882,
    "lat": 40.7716,
    "adoption_case": 1,
    "state_num": 43
  },
  {
    "policy_id": "adcom",
    "adopted_year": 1936,
    "state": "WI",
    "state_name": "Wisconsin",
    "long": -89.4007,
    "lat": 43.0632,
    "adoption_case": 1,
    "state_num": 47
  },
  {
    "policy_id": "adcom",
    "adopted_year": 1937,
    "state": "AR",
    "state_name": "Arkansas",
    "long": -92.2789,
    "lat": 34.7244,
    "adoption_case": 1,
    "state_num": 44
  },
  {
    "policy_id": "adcom",
    "adopted_year": 1937,
    "state": "AZ",
    "state_name": "Arizona",
    "long": -112.0738,
    "lat": 33.4483,
    "adoption_case": 1,
    "state_num": 17
  },
  {
    "policy_id": "adcom",
    "adopted_year": 1937,
    "state": "ID",
    "state_name": "Idaho",
    "long": -116.2125,
    "lat": 43.6021,
    "adoption_case": 1,
    "state_num": 36
  },
  {
    "policy_id": "adcom",
    "adopted_year": 1937,
    "state": "MA",
    "state_name": "Maine",
    "long": -71.0568,
    "lat": 42.3589,
    "adoption_case": 1,
    "state_num": 10
  },
  {
    "policy_id": "adcom",
    "adopted_year": 1937,
    "state": "NC",
    "state_name": "North Carolina",
    "long": -78.6434,
    "lat": 35.7797,
    "adoption_case": 1,
    "state_num": 9
  },
  {
    "policy_id": "adcom",
    "adopted_year": 1937,
    "state": "NJ",
    "state_name": "New Jersey",
    "long": -74.7642,
    "lat": 40.2202,
    "adoption_case": 1,
    "state_num": 7
  },
  {
    "policy_id": "adcom",
    "adopted_year": 1937,
    "state": "OK",
    "state_name": "Oklahoma",
    "long": -97.4591,
    "lat": 35.4931,
    "adoption_case": 1,
    "state_num": 35
  },
  {
    "policy_id": "adcom",
    "adopted_year": 1937,
    "state": "TN",
    "state_name": "Tennessee",
    "long": -86.7821,
    "lat": 36.1589,
    "adoption_case": 1,
    "state_num": 41
  },
  {
    "policy_id": "adcom",
    "adopted_year": 1937,
    "state": "WA",
    "state_name": "Washington",
    "long": -122.9016,
    "lat": 47.0449,
    "adoption_case": 1,
    "state_num": 4
  },
  {
    "policy_id": "adcom",
    "adopted_year": 1939,
    "state": "AL",
    "state_name": "Alabama",
    "long": -86.2996,
    "lat": 32.3754,
    "adoption_case": 1,
    "state_num": 25
  },
  {
    "policy_id": "adcom",
    "adopted_year": 1939,
    "state": "CT",
    "state_name": "Connecticut",
    "long": -72.6732,
    "lat": 41.7665,
    "adoption_case": 1,
    "state_num": 1
  },
  {
    "policy_id": "adcom",
    "adopted_year": 1939,
    "state": "IL",
    "state_name": "Illinois",
    "long": -89.6533,
    "lat": 39.8018,
    "adoption_case": 1,
    "state_num": 6
  },
  {
    "policy_id": "adcom",
    "adopted_year": 1939,
    "state": "IN",
    "state_name": "Indiana",
    "long": -86.1563,
    "lat": 39.767,
    "adoption_case": 1,
    "state_num": 46
  },
  {
    "policy_id": "adcom",
    "adopted_year": 1939,
    "state": "KS",
    "state_name": "Kansas",
    "long": -95.6815,
    "lat": 39.0474,
    "adoption_case": 1,
    "state_num": 15
  },
  {
    "policy_id": "adcom",
    "adopted_year": 1939,
    "state": "MD",
    "state_name": "Maryland",
    "long": -76.5197,
    "lat": 38.9693,
    "adoption_case": 1,
    "state_num": 19
  },
  {
    "policy_id": "adcom",
    "adopted_year": 1939,
    "state": "NE",
    "state_name": "Nebraska",
    "long": -97.548,
    "lat": 41.1786,
    "adoption_case": 1,
    "state_num": 28
  },
  {
    "policy_id": "adcom",
    "adopted_year": 1939,
    "state": "OH",
    "state_name": "Ohio",
    "long": -83.0007,
    "lat": 39.9622,
    "adoption_case": 1,
    "state_num": 34
  },
  {
    "policy_id": "adcom",
    "adopted_year": 1939,
    "state": "PA",
    "state_name": "Pennsylvania",
    "long": -76.8849,
    "lat": 40.274,
    "adoption_case": 1,
    "state_num": 37
  },
  {
    "policy_id": "adcom",
    "adopted_year": 1939,
    "state": "RI",
    "state_name": "Rhode Island",
    "long": -71.4087,
    "lat": 41.827,
    "adoption_case": 1,
    "state_num": 38
  },
  {
    "policy_id": "adcom",
    "adopted_year": 1939,
    "state": "SD",
    "state_name": "South Dakota",
    "long": -100.3177,
    "lat": 44.3776,
    "adoption_case": 1,
    "state_num": 40
  },
  {
    "policy_id": "adcom",
    "adopted_year": 1939,
    "state": "WV",
    "state_name": "West Virginia",
    "long": -81.6354,
    "lat": 38.3533,
    "adoption_case": 1,
    "state_num": 48
  },
  {
    "policy_id": "admittpriv",
    "adopted_year": 2011,
    "state": "AZ",
    "state_name": "Arizona",
    "long": -112.0738,
    "lat": 33.4483,
    "adoption_case": 1,
    "state_num": 17
  },
  {
    "policy_id": "admittpriv",
    "adopted_year": 2011,
    "state": "MS",
    "state_name": "Mississippi",
    "long": -90.178,
    "lat": 32.3122,
    "adoption_case": 1,
    "state_num": 24
  },
  {
    "policy_id": "admittpriv",
    "adopted_year": 2013,
    "state": "AL",
    "state_name": "Alabama",
    "long": -86.2996,
    "lat": 32.3754,
    "adoption_case": 1,
    "state_num": 25
  },
  {
    "policy_id": "admittpriv",
    "adopted_year": 2013,
    "state": "IN",
    "state_name": "Indiana",
    "long": -86.1563,
    "lat": 39.767,
    "adoption_case": 1,
    "state_num": 46
  },
  {
    "policy_id": "admittpriv",
    "adopted_year": 2013,
    "state": "MO",
    "state_name": "Missouri",
    "long": -92.1941,
    "lat": 38.5698,
    "adoption_case": 1,
    "state_num": 23
  },
  {
    "policy_id": "admittpriv",
    "adopted_year": 2013,
    "state": "ND",
    "state_name": "North Dakota",
    "long": -100.7694,
    "lat": 46.8084,
    "adoption_case": 1,
    "state_num": 27
  },
  {
    "policy_id": "admittpriv",
    "adopted_year": 2013,
    "state": "OH",
    "state_name": "Ohio",
    "long": -83.0007,
    "lat": 39.9622,
    "adoption_case": 1,
    "state_num": 34
  },
  {
    "policy_id": "admittpriv",
    "adopted_year": 2013,
    "state": "OK",
    "state_name": "Oklahoma",
    "long": -97.4591,
    "lat": 35.4931,
    "adoption_case": 1,
    "state_num": 35
  },
  {
    "policy_id": "admittpriv",
    "adopted_year": 2013,
    "state": "PA",
    "state_name": "Pennsylvania",
    "long": -76.8849,
    "lat": 40.274,
    "adoption_case": 1,
    "state_num": 37
  },
  {
    "policy_id": "admittpriv",
    "adopted_year": 2013,
    "state": "TN",
    "state_name": "Tennessee",
    "long": -86.7821,
    "lat": 36.1589,
    "adoption_case": 1,
    "state_num": 41
  },
  {
    "policy_id": "admittpriv",
    "adopted_year": 2013,
    "state": "TX",
    "state_name": "Texas",
    "long": -97.7452,
    "lat": 30.2687,
    "adoption_case": 1,
    "state_num": 42
  },
  {
    "policy_id": "admittpriv",
    "adopted_year": 2013,
    "state": "UT",
    "state_name": "Utah",
    "long": -111.8882,
    "lat": 40.7716,
    "adoption_case": 1,
    "state_num": 43
  },
  {
    "policy_id": "admittpriv",
    "adopted_year": 2013,
    "state": "WI",
    "state_name": "Wisconsin",
    "long": -89.4007,
    "lat": 43.0632,
    "adoption_case": 1,
    "state_num": 47
  },
  {
    "policy_id": "adoptionact19531969",
    "adopted_year": 1971,
    "state": "ND",
    "state_name": "North Dakota",
    "long": -100.7694,
    "lat": 46.8084,
    "adoption_case": 1,
    "state_num": 27
  },
  {
    "policy_id": "adoptionact19531969",
    "adopted_year": 1971,
    "state": "NM",
    "state_name": "New Mexico",
    "long": -105.9381,
    "lat": 35.6816,
    "adoption_case": 1,
    "state_num": 31
  },
  {
    "policy_id": "adoptionact19531969",
    "adopted_year": 1973,
    "state": "OK",
    "state_name": "Oklahoma",
    "long": -97.4591,
    "lat": 35.4931,
    "adoption_case": 1,
    "state_num": 35
  },
  {
    "policy_id": "adoptionact19531969",
    "adopted_year": 1976,
    "state": "IA",
    "state_name": "Iowa",
    "long": -93.6203,
    "lat": 41.5888,
    "adoption_case": 1,
    "state_num": 33
  },
  {
    "policy_id": "adoptionact19531969",
    "adopted_year": 1977,
    "state": "AR",
    "state_name": "Arkansas",
    "long": -92.2789,
    "lat": 34.7244,
    "adoption_case": 1,
    "state_num": 44
  },
  {
    "policy_id": "adoptionact1994",
    "adopted_year": 1996,
    "state": "VT",
    "state_name": "Vermont",
    "long": -72.5716,
    "lat": 44.2627,
    "adoption_case": 1,
    "state_num": 45
  },
  {
    "policy_id": "adultguardianshipandprotectiveproceedingsjurisdictionact",
    "adopted_year": 2008,
    "state": "AK",
    "state_name": "Alaska",
    "long": -134.5721,
    "lat": 58.3637,
    "adoption_case": 1,
    "state_num": 22
  },
  {
    "policy_id": "adultguardianshipandprotectiveproceedingsjurisdictionact",
    "adopted_year": 2008,
    "state": "CO",
    "state_name": "Colorado",
    "long": -104.9881,
    "lat": 39.7551,
    "adoption_case": 1,
    "state_num": 5
  },
  {
    "policy_id": "adultguardianshipandprotectiveproceedingsjurisdictionact",
    "adopted_year": 2008,
    "state": "DE",
    "state_name": "Delaware",
    "long": -75.5136,
    "lat": 39.1615,
    "adoption_case": 1,
    "state_num": 18
  },
  {
    "policy_id": "adultguardianshipandprotectiveproceedingsjurisdictionact",
    "adopted_year": 2008,
    "state": "UT",
    "state_name": "Utah",
    "long": -111.8882,
    "lat": 40.7716,
    "adoption_case": 1,
    "state_num": 43
  },
  {
    "policy_id": "adultguardianshipandprotectiveproceedingsjurisdictionact",
    "adopted_year": 2009,
    "state": "IL",
    "state_name": "Illinois",
    "long": -89.6533,
    "lat": 39.8018,
    "adoption_case": 1,
    "state_num": 6
  },
  {
    "policy_id": "adultguardianshipandprotectiveproceedingsjurisdictionact",
    "adopted_year": 2009,
    "state": "MN",
    "state_name": "Minnesota",
    "long": -93.1027,
    "lat": 44.9446,
    "adoption_case": 1,
    "state_num": 8
  },
  {
    "policy_id": "adultguardianshipandprotectiveproceedingsjurisdictionact",
    "adopted_year": 2009,
    "state": "MT",
    "state_name": "Montana",
    "long": -112.0205,
    "lat": 46.5911,
    "adoption_case": 1,
    "state_num": 14
  },
  {
    "policy_id": "adultguardianshipandprotectiveproceedingsjurisdictionact",
    "adopted_year": 2009,
    "state": "ND",
    "state_name": "North Dakota",
    "long": -100.7694,
    "lat": 46.8084,
    "adoption_case": 1,
    "state_num": 27
  },
  {
    "policy_id": "adultguardianshipandprotectiveproceedingsjurisdictionact",
    "adopted_year": 2009,
    "state": "NV",
    "state_name": "Nevada",
    "long": -119.7519,
    "lat": 39.1501,
    "adoption_case": 1,
    "state_num": 32
  },
  {
    "policy_id": "adultguardianshipandprotectiveproceedingsjurisdictionact",
    "adopted_year": 2009,
    "state": "OR",
    "state_name": "Oregon",
    "long": -123.0272,
    "lat": 44.937,
    "adoption_case": 1,
    "state_num": 3
  },
  {
    "policy_id": "adultguardianshipandprotectiveproceedingsjurisdictionact",
    "adopted_year": 2009,
    "state": "WA",
    "state_name": "Washington",
    "long": -122.9016,
    "lat": 47.0449,
    "adoption_case": 1,
    "state_num": 4
  },
  {
    "policy_id": "adultguardianshipandprotectiveproceedingsjurisdictionact",
    "adopted_year": 2010,
    "state": "AL",
    "state_name": "Alabama",
    "long": -86.2996,
    "lat": 32.3754,
    "adoption_case": 1,
    "state_num": 25
  },
  {
    "policy_id": "adultguardianshipandprotectiveproceedingsjurisdictionact",
    "adopted_year": 2010,
    "state": "AZ",
    "state_name": "Arizona",
    "long": -112.0738,
    "lat": 33.4483,
    "adoption_case": 1,
    "state_num": 17
  },
  {
    "policy_id": "adultguardianshipandprotectiveproceedingsjurisdictionact",
    "adopted_year": 2010,
    "state": "IA",
    "state_name": "Iowa",
    "long": -93.6203,
    "lat": 41.5888,
    "adoption_case": 1,
    "state_num": 33
  },
  {
    "policy_id": "adultguardianshipandprotectiveproceedingsjurisdictionact",
    "adopted_year": 2010,
    "state": "MD",
    "state_name": "Maryland",
    "long": -76.5197,
    "lat": 38.9693,
    "adoption_case": 1,
    "state_num": 19
  },
  {
    "policy_id": "adultguardianshipandprotectiveproceedingsjurisdictionact",
    "adopted_year": 2010,
    "state": "OK",
    "state_name": "Oklahoma",
    "long": -97.4591,
    "lat": 35.4931,
    "adoption_case": 1,
    "state_num": 35
  },
  {
    "policy_id": "adultguardianshipandprotectiveproceedingsjurisdictionact",
    "adopted_year": 2010,
    "state": "SC",
    "state_name": "South Carolina",
    "long": -81.0353,
    "lat": 34.0007,
    "adoption_case": 1,
    "state_num": 39
  },
  {
    "policy_id": "adultguardianshipandprotectiveproceedingsjurisdictionact",
    "adopted_year": 2010,
    "state": "TN",
    "state_name": "Tennessee",
    "long": -86.7821,
    "lat": 36.1589,
    "adoption_case": 1,
    "state_num": 41
  },
  {
    "policy_id": "adultguardianshipandprotectiveproceedingsjurisdictionact",
    "adopted_year": 2011,
    "state": "AR",
    "state_name": "Arkansas",
    "long": -92.2789,
    "lat": 34.7244,
    "adoption_case": 1,
    "state_num": 44
  },
  {
    "policy_id": "adultguardianshipandprotectiveproceedingsjurisdictionact",
    "adopted_year": 2011,
    "state": "ID",
    "state_name": "Idaho",
    "long": -116.2125,
    "lat": 43.6021,
    "adoption_case": 1,
    "state_num": 36
  },
  {
    "policy_id": "adultguardianshipandprotectiveproceedingsjurisdictionact",
    "adopted_year": 2011,
    "state": "IN",
    "state_name": "Indiana",
    "long": -86.1563,
    "lat": 39.767,
    "adoption_case": 1,
    "state_num": 46
  },
  {
    "policy_id": "adultguardianshipandprotectiveproceedingsjurisdictionact",
    "adopted_year": 2011,
    "state": "KY",
    "state_name": "Kentucky",
    "long": -84.8715,
    "lat": 38.1894,
    "adoption_case": 1,
    "state_num": 16
  },
  {
    "policy_id": "adultguardianshipandprotectiveproceedingsjurisdictionact",
    "adopted_year": 2011,
    "state": "MO",
    "state_name": "Missouri",
    "long": -92.1941,
    "lat": 38.5698,
    "adoption_case": 1,
    "state_num": 23
  },
  {
    "policy_id": "adultguardianshipandprotectiveproceedingsjurisdictionact",
    "adopted_year": 2011,
    "state": "NE",
    "state_name": "Nebraska",
    "long": -97.548,
    "lat": 41.1786,
    "adoption_case": 1,
    "state_num": 28
  },
  {
    "policy_id": "adultguardianshipandprotectiveproceedingsjurisdictionact",
    "adopted_year": 2011,
    "state": "NM",
    "state_name": "New Mexico",
    "long": -105.9381,
    "lat": 35.6816,
    "adoption_case": 1,
    "state_num": 31
  },
  {
    "policy_id": "adultguardianshipandprotectiveproceedingsjurisdictionact",
    "adopted_year": 2011,
    "state": "SD",
    "state_name": "South Dakota",
    "long": -100.3177,
    "lat": 44.3776,
    "adoption_case": 1,
    "state_num": 40
  },
  {
    "policy_id": "adultguardianshipandprotectiveproceedingsjurisdictionact",
    "adopted_year": 2011,
    "state": "VA",
    "state_name": "Virginia",
    "long": -77.4339,
    "lat": 37.5408,
    "adoption_case": 1,
    "state_num": 13
  },
  {
    "policy_id": "adultguardianshipandprotectiveproceedingsjurisdictionact",
    "adopted_year": 2011,
    "state": "VT",
    "state_name": "Vermont",
    "long": -72.5716,
    "lat": 44.2627,
    "adoption_case": 1,
    "state_num": 45
  },
  {
    "policy_id": "adultguardianshipandprotectiveproceedingsjurisdictionact",
    "adopted_year": 2012,
    "state": "CT",
    "state_name": "Connecticut",
    "long": -72.6732,
    "lat": 41.7665,
    "adoption_case": 1,
    "state_num": 1
  },
  {
    "policy_id": "adultguardianshipandprotectiveproceedingsjurisdictionact",
    "adopted_year": 2012,
    "state": "HI",
    "state_name": "Hawaii",
    "long": -157.8219,
    "lat": 21.292,
    "adoption_case": 1,
    "state_num": 30
  },
  {
    "policy_id": "adultguardianshipandprotectiveproceedingsjurisdictionact",
    "adopted_year": 2012,
    "state": "ME",
    "state_name": "Massachusetts",
    "long": -69.7323,
    "lat": 44.3294,
    "adoption_case": 1,
    "state_num": 20
  },
  {
    "policy_id": "adultguardianshipandprotectiveproceedingsjurisdictionact",
    "adopted_year": 2012,
    "state": "NJ",
    "state_name": "New Jersey",
    "long": -74.7642,
    "lat": 40.2202,
    "adoption_case": 1,
    "state_num": 7
  },
  {
    "policy_id": "adultguardianshipandprotectiveproceedingsjurisdictionact",
    "adopted_year": 2012,
    "state": "PA",
    "state_name": "Pennsylvania",
    "long": -76.8849,
    "lat": 40.274,
    "adoption_case": 1,
    "state_num": 37
  },
  {
    "policy_id": "adultguardianshipandprotectiveproceedingsjurisdictionact",
    "adopted_year": 2013,
    "state": "OH",
    "state_name": "Ohio",
    "long": -83.0007,
    "lat": 39.9622,
    "adoption_case": 1,
    "state_num": 34
  },
  {
    "policy_id": "adultguardianshipandprotectiveproceedingsjurisdictionact",
    "adopted_year": 2013,
    "state": "WY",
    "state_name": "Wyoming",
    "long": -104.8165,
    "lat": 41.1389,
    "adoption_case": 1,
    "state_num": 49
  },
  {
    "policy_id": "adultguardianshipandprotectiveproceedingsjurisdictionact",
    "adopted_year": 2014,
    "state": "CA",
    "state_name": "California",
    "long": -121.4871,
    "lat": 38.5737,
    "adoption_case": 1,
    "state_num": 0
  },
  {
    "policy_id": "adultguardianshipandprotectiveproceedingsjurisdictionact",
    "adopted_year": 2014,
    "state": "MA",
    "state_name": "Maine",
    "long": -71.0568,
    "lat": 42.3589,
    "adoption_case": 1,
    "state_num": 10
  },
  {
    "policy_id": "adultguardianshipandprotectiveproceedingsjurisdictionact",
    "adopted_year": 2014,
    "state": "MS",
    "state_name": "Mississippi",
    "long": -90.178,
    "lat": 32.3122,
    "adoption_case": 1,
    "state_num": 24
  },
  {
    "policy_id": "adultguardianshipandprotectiveproceedingsjurisdictionact",
    "adopted_year": 2014,
    "state": "NY",
    "state_name": "New York",
    "long": -73.7551,
    "lat": 42.6517,
    "adoption_case": 1,
    "state_num": 2
  },
  {
    "policy_id": "adultguardianshipandprotectiveproceedingsjurisdictionact",
    "adopted_year": 2015,
    "state": "NH",
    "state_name": "New Hampshire",
    "long": -71.5597,
    "lat": 43.2314,
    "adoption_case": 1,
    "state_num": 29
  },
  {
    "policy_id": "adultguardianshipandprotectiveproceedingsjurisdictionact",
    "adopted_year": 2015,
    "state": "RI",
    "state_name": "Rhode Island",
    "long": -71.4087,
    "lat": 41.827,
    "adoption_case": 1,
    "state_num": 38
  },
  {
    "policy_id": "adultguardianshipandprotectiveproceedingsjurisdictionact",
    "adopted_year": 2016,
    "state": "GA",
    "state_name": "Georgia",
    "long": -84.3897,
    "lat": 33.7545,
    "adoption_case": 1,
    "state_num": 26
  },
  {
    "policy_id": "adultguardianshipandprotectiveproceedingsjurisdictionact",
    "adopted_year": 2016,
    "state": "LA",
    "state_name": "Louisiana",
    "long": -91.1882,
    "lat": 30.4493,
    "adoption_case": 1,
    "state_num": 11
  },
  {
    "policy_id": "adultguardianshipandprotectiveproceedingsjurisdictionact",
    "adopted_year": 2016,
    "state": "NC",
    "state_name": "North Carolina",
    "long": -78.6434,
    "lat": 35.7797,
    "adoption_case": 1,
    "state_num": 9
  },
  {
    "policy_id": "advertban",
    "adopted_year": 1989,
    "state": "MI",
    "state_name": "Michigan",
    "long": -84.5466,
    "lat": 42.7336,
    "adoption_case": 1,
    "state_num": 21
  },
  {
    "policy_id": "advertban",
    "adopted_year": 1992,
    "state": "KY",
    "state_name": "Kentucky",
    "long": -84.8715,
    "lat": 38.1894,
    "adoption_case": 1,
    "state_num": 16
  },
  {
    "policy_id": "advertban",
    "adopted_year": 1992,
    "state": "PA",
    "state_name": "Pennsylvania",
    "long": -76.8849,
    "lat": 40.274,
    "adoption_case": 1,
    "state_num": 37
  },
  {
    "policy_id": "advertban",
    "adopted_year": 1993,
    "state": "CA",
    "state_name": "California",
    "long": -121.4871,
    "lat": 38.5737,
    "adoption_case": 1,
    "state_num": 0
  },
  {
    "policy_id": "advertban",
    "adopted_year": 1993,
    "state": "TX",
    "state_name": "Texas",
    "long": -97.7452,
    "lat": 30.2687,
    "adoption_case": 1,
    "state_num": 42
  },
  {
    "policy_id": "advertban",
    "adopted_year": 1994,
    "state": "LA",
    "state_name": "Louisiana",
    "long": -91.1882,
    "lat": 30.4493,
    "adoption_case": 1,
    "state_num": 11
  },
  {
    "policy_id": "advertban",
    "adopted_year": 1995,
    "state": "AK",
    "state_name": "Alaska",
    "long": -134.5721,
    "lat": 58.3637,
    "adoption_case": 1,
    "state_num": 22
  },
  {
    "policy_id": "advertban",
    "adopted_year": 1995,
    "state": "VT",
    "state_name": "Vermont",
    "long": -72.5716,
    "lat": 44.2627,
    "adoption_case": 1,
    "state_num": 45
  },
  {
    "policy_id": "advertban",
    "adopted_year": 1996,
    "state": "IN",
    "state_name": "Indiana",
    "long": -86.1563,
    "lat": 39.767,
    "adoption_case": 1,
    "state_num": 46
  },
  {
    "policy_id": "advertban",
    "adopted_year": 1997,
    "state": "AZ",
    "state_name": "Arizona",
    "long": -112.0738,
    "lat": 33.4483,
    "adoption_case": 1,
    "state_num": 17
  },
  {
    "policy_id": "advertban",
    "adopted_year": 1997,
    "state": "NM",
    "state_name": "New Mexico",
    "long": -105.9381,
    "lat": 35.6816,
    "adoption_case": 1,
    "state_num": 31
  },
  {
    "policy_id": "advertban",
    "adopted_year": 1997,
    "state": "NV",
    "state_name": "Nevada",
    "long": -119.7519,
    "lat": 39.1501,
    "adoption_case": 1,
    "state_num": 32
  },
  {
    "policy_id": "advertban",
    "adopted_year": 1997,
    "state": "TN",
    "state_name": "Tennessee",
    "long": -86.7821,
    "lat": 36.1589,
    "adoption_case": 1,
    "state_num": 41
  },
  {
    "policy_id": "advertban",
    "adopted_year": 1998,
    "state": "MN",
    "state_name": "Minnesota",
    "long": -93.1027,
    "lat": 44.9446,
    "adoption_case": 1,
    "state_num": 8
  },
  {
    "policy_id": "advertban",
    "adopted_year": 1999,
    "state": "OR",
    "state_name": "Oregon",
    "long": -123.0272,
    "lat": 44.937,
    "adoption_case": 1,
    "state_num": 3
  },
  {
    "policy_id": "advertban",
    "adopted_year": 2001,
    "state": "DE",
    "state_name": "Delaware",
    "long": -75.5136,
    "lat": 39.1615,
    "adoption_case": 1,
    "state_num": 18
  },
  {
    "policy_id": "afdc_u",
    "adopted_year": 1961,
    "state": "CT",
    "state_name": "Connecticut",
    "long": -72.6732,
    "lat": 41.7665,
    "adoption_case": 1,
    "state_num": 1
  },
  {
    "policy_id": "afdc_u",
    "adopted_year": 1961,
    "state": "HI",
    "state_name": "Hawaii",
    "long": -157.8219,
    "lat": 21.292,
    "adoption_case": 1,
    "state_num": 30
  },
  {
    "policy_id": "afdc_u",
    "adopted_year": 1961,
    "state": "IL",
    "state_name": "Illinois",
    "long": -89.6533,
    "lat": 39.8018,
    "adoption_case": 1,
    "state_num": 6
  },
  {
    "policy_id": "afdc_u",
    "adopted_year": 1961,
    "state": "MA",
    "state_name": "Maine",
    "long": -71.0568,
    "lat": 42.3589,
    "adoption_case": 1,
    "state_num": 10
  },
  {
    "policy_id": "afdc_u",
    "adopted_year": 1961,
    "state": "MD",
    "state_name": "Maryland",
    "long": -76.5197,
    "lat": 38.9693,
    "adoption_case": 1,
    "state_num": 19
  },
  {
    "policy_id": "afdc_u",
    "adopted_year": 1961,
    "state": "NY",
    "state_name": "New York",
    "long": -73.7551,
    "lat": 42.6517,
    "adoption_case": 1,
    "state_num": 2
  },
  {
    "policy_id": "afdc_u",
    "adopted_year": 1961,
    "state": "PA",
    "state_name": "Pennsylvania",
    "long": -76.8849,
    "lat": 40.274,
    "adoption_case": 1,
    "state_num": 37
  },
  {
    "policy_id": "afdc_u",
    "adopted_year": 1961,
    "state": "RI",
    "state_name": "Rhode Island",
    "long": -71.4087,
    "lat": 41.827,
    "adoption_case": 1,
    "state_num": 38
  },
  {
    "policy_id": "afdc_u",
    "adopted_year": 1961,
    "state": "UT",
    "state_name": "Utah",
    "long": -111.8882,
    "lat": 40.7716,
    "adoption_case": 1,
    "state_num": 43
  },
  {
    "policy_id": "afdc_u",
    "adopted_year": 1961,
    "state": "WA",
    "state_name": "Washington",
    "long": -122.9016,
    "lat": 47.0449,
    "adoption_case": 1,
    "state_num": 4
  },
  {
    "policy_id": "afdc_u",
    "adopted_year": 1961,
    "state": "WV",
    "state_name": "West Virginia",
    "long": -81.6354,
    "lat": 38.3533,
    "adoption_case": 1,
    "state_num": 48
  },
  {
    "policy_id": "afdc_u",
    "adopted_year": 1962,
    "state": "DE",
    "state_name": "Delaware",
    "long": -75.5136,
    "lat": 39.1615,
    "adoption_case": 1,
    "state_num": 18
  },
  {
    "policy_id": "afdc_u",
    "adopted_year": 1962,
    "state": "NC",
    "state_name": "North Carolina",
    "long": -78.6434,
    "lat": 35.7797,
    "adoption_case": 1,
    "state_num": 9
  },
  {
    "policy_id": "afdc_u",
    "adopted_year": 1962,
    "state": "OK",
    "state_name": "Oklahoma",
    "long": -97.4591,
    "lat": 35.4931,
    "adoption_case": 1,
    "state_num": 35
  },
  {
    "policy_id": "afdc_u",
    "adopted_year": 1962,
    "state": "OR",
    "state_name": "Oregon",
    "long": -123.0272,
    "lat": 44.937,
    "adoption_case": 1,
    "state_num": 3
  },
  {
    "policy_id": "afdc_u",
    "adopted_year": 1963,
    "state": "CA",
    "state_name": "California",
    "long": -121.4871,
    "lat": 38.5737,
    "adoption_case": 1,
    "state_num": 0
  },
  {
    "policy_id": "afdc_u",
    "adopted_year": 1963,
    "state": "KS",
    "state_name": "Kansas",
    "long": -95.6815,
    "lat": 39.0474,
    "adoption_case": 1,
    "state_num": 15
  },
  {
    "policy_id": "afdc_u",
    "adopted_year": 1964,
    "state": "MI",
    "state_name": "Michigan",
    "long": -84.5466,
    "lat": 42.7336,
    "adoption_case": 1,
    "state_num": 21
  },
  {
    "policy_id": "afdc_u",
    "adopted_year": 1964,
    "state": "OH",
    "state_name": "Ohio",
    "long": -83.0007,
    "lat": 39.9622,
    "adoption_case": 1,
    "state_num": 34
  },
  {
    "policy_id": "afdc_u",
    "adopted_year": 1965,
    "state": "NE",
    "state_name": "Nebraska",
    "long": -97.548,
    "lat": 41.1786,
    "adoption_case": 1,
    "state_num": 28
  },
  {
    "policy_id": "afdc_u",
    "adopted_year": 1966,
    "state": "CO",
    "state_name": "Colorado",
    "long": -104.9881,
    "lat": 39.7551,
    "adoption_case": 1,
    "state_num": 5
  },
  {
    "policy_id": "afdc_u",
    "adopted_year": 1966,
    "state": "WI",
    "state_name": "Wisconsin",
    "long": -89.4007,
    "lat": 43.0632,
    "adoption_case": 1,
    "state_num": 47
  },
  {
    "policy_id": "afdc_u",
    "adopted_year": 1968,
    "state": "VT",
    "state_name": "Vermont",
    "long": -72.5716,
    "lat": 44.2627,
    "adoption_case": 1,
    "state_num": 45
  },
  {
    "policy_id": "afdc_u",
    "adopted_year": 1969,
    "state": "ME",
    "state_name": "Massachusetts",
    "long": -69.7323,
    "lat": 44.3294,
    "adoption_case": 1,
    "state_num": 20
  },
  {
    "policy_id": "afdc_u",
    "adopted_year": 1969,
    "state": "MO",
    "state_name": "Missouri",
    "long": -92.1941,
    "lat": 38.5698,
    "adoption_case": 1,
    "state_num": 23
  },
  {
    "policy_id": "afdc_u",
    "adopted_year": 1969,
    "state": "NJ",
    "state_name": "New Jersey",
    "long": -74.7642,
    "lat": 40.2202,
    "adoption_case": 1,
    "state_num": 7
  },
  {
    "policy_id": "afdc_u",
    "adopted_year": 1970,
    "state": "MN",
    "state_name": "Minnesota",
    "long": -93.1027,
    "lat": 44.9446,
    "adoption_case": 1,
    "state_num": 8
  },
  {
    "policy_id": "afdc_u",
    "adopted_year": 1974,
    "state": "IA",
    "state_name": "Iowa",
    "long": -93.6203,
    "lat": 41.5888,
    "adoption_case": 1,
    "state_num": 33
  },
  {
    "policy_id": "afdc_u",
    "adopted_year": 1975,
    "state": "KY",
    "state_name": "Kentucky",
    "long": -84.8715,
    "lat": 38.1894,
    "adoption_case": 1,
    "state_num": 16
  },
  {
    "policy_id": "afdc_u",
    "adopted_year": 1975,
    "state": "MT",
    "state_name": "Montana",
    "long": -112.0205,
    "lat": 46.5911,
    "adoption_case": 1,
    "state_num": 14
  },
  {
    "policy_id": "afdc_u",
    "adopted_year": 1985,
    "state": "SC",
    "state_name": "South Carolina",
    "long": -81.0353,
    "lat": 34.0007,
    "adoption_case": 1,
    "state_num": 39
  },
  {
    "policy_id": "aging",
    "adopted_year": 1974,
    "state": "AL",
    "state_name": "Alabama",
    "long": -86.2996,
    "lat": 32.3754,
    "adoption_case": 1,
    "state_num": 25
  },
  {
    "policy_id": "aging",
    "adopted_year": 1980,
    "state": "KY",
    "state_name": "Kentucky",
    "long": -84.8715,
    "lat": 38.1894,
    "adoption_case": 1,
    "state_num": 16
  },
  {
    "policy_id": "aging",
    "adopted_year": 1983,
    "state": "IL",
    "state_name": "Illinois",
    "long": -89.6533,
    "lat": 39.8018,
    "adoption_case": 1,
    "state_num": 6
  },
  {
    "policy_id": "aging",
    "adopted_year": 1986,
    "state": "NY",
    "state_name": "New York",
    "long": -73.7551,
    "lat": 42.6517,
    "adoption_case": 1,
    "state_num": 2
  },
  {
    "policy_id": "aging",
    "adopted_year": 1986,
    "state": "SC",
    "state_name": "South Carolina",
    "long": -81.0353,
    "lat": 34.0007,
    "adoption_case": 1,
    "state_num": 39
  },
  {
    "policy_id": "aging",
    "adopted_year": 1986,
    "state": "VA",
    "state_name": "Virginia",
    "long": -77.4339,
    "lat": 37.5408,
    "adoption_case": 1,
    "state_num": 13
  },
  {
    "policy_id": "aging",
    "adopted_year": 1987,
    "state": "DE",
    "state_name": "Delaware",
    "long": -75.5136,
    "lat": 39.1615,
    "adoption_case": 1,
    "state_num": 18
  },
  {
    "policy_id": "aging",
    "adopted_year": 1987,
    "state": "HI",
    "state_name": "Hawaii",
    "long": -157.8219,
    "lat": 21.292,
    "adoption_case": 1,
    "state_num": 30
  },
  {
    "policy_id": "aging",
    "adopted_year": 1987,
    "state": "IA",
    "state_name": "Iowa",
    "long": -93.6203,
    "lat": 41.5888,
    "adoption_case": 1,
    "state_num": 33
  },
  {
    "policy_id": "aging",
    "adopted_year": 1987,
    "state": "PA",
    "state_name": "Pennsylvania",
    "long": -76.8849,
    "lat": 40.274,
    "adoption_case": 1,
    "state_num": 37
  },
  {
    "policy_id": "aging",
    "adopted_year": 1988,
    "state": "IN",
    "state_name": "Indiana",
    "long": -86.1563,
    "lat": 39.767,
    "adoption_case": 1,
    "state_num": 46
  },
  {
    "policy_id": "aging",
    "adopted_year": 1988,
    "state": "MT",
    "state_name": "Montana",
    "long": -112.0205,
    "lat": 46.5911,
    "adoption_case": 1,
    "state_num": 14
  },
  {
    "policy_id": "aging",
    "adopted_year": 1988,
    "state": "WA",
    "state_name": "Washington",
    "long": -122.9016,
    "lat": 47.0449,
    "adoption_case": 1,
    "state_num": 4
  },
  {
    "policy_id": "aging",
    "adopted_year": 1989,
    "state": "CA",
    "state_name": "California",
    "long": -121.4871,
    "lat": 38.5737,
    "adoption_case": 1,
    "state_num": 0
  },
  {
    "policy_id": "aging",
    "adopted_year": 1989,
    "state": "OR",
    "state_name": "Oregon",
    "long": -123.0272,
    "lat": 44.937,
    "adoption_case": 1,
    "state_num": 3
  },
  {
    "policy_id": "aging",
    "adopted_year": 1989,
    "state": "UT",
    "state_name": "Utah",
    "long": -111.8882,
    "lat": 40.7716,
    "adoption_case": 1,
    "state_num": 43
  },
  {
    "policy_id": "aging",
    "adopted_year": 1990,
    "state": "SD",
    "state_name": "South Dakota",
    "long": -100.3177,
    "lat": 44.3776,
    "adoption_case": 1,
    "state_num": 40
  },
  {
    "policy_id": "aging",
    "adopted_year": 1991,
    "state": "MI",
    "state_name": "Michigan",
    "long": -84.5466,
    "lat": 42.7336,
    "adoption_case": 1,
    "state_num": 21
  },
  {
    "policy_id": "aging",
    "adopted_year": 1991,
    "state": "RI",
    "state_name": "Rhode Island",
    "long": -71.4087,
    "lat": 41.827,
    "adoption_case": 1,
    "state_num": 38
  },
  {
    "policy_id": "agreementondetainers",
    "adopted_year": 1951,
    "state": "VT",
    "state_name": "Vermont",
    "long": -72.5716,
    "lat": 44.2627,
    "adoption_case": 1,
    "state_num": 45
  },
  {
    "policy_id": "agreementondetainers",
    "adopted_year": 1957,
    "state": "CT",
    "state_name": "Connecticut",
    "long": -72.6732,
    "lat": 41.7665,
    "adoption_case": 1,
    "state_num": 1
  },
  {
    "policy_id": "agreementondetainers",
    "adopted_year": 1957,
    "state": "NY",
    "state_name": "New York",
    "long": -73.7551,
    "lat": 42.6517,
    "adoption_case": 1,
    "state_num": 2
  },
  {
    "policy_id": "agreementondetainers",
    "adopted_year": 1958,
    "state": "NJ",
    "state_name": "New Jersey",
    "long": -74.7642,
    "lat": 40.2202,
    "adoption_case": 1,
    "state_num": 7
  },
  {
    "policy_id": "agreementondetainers",
    "adopted_year": 1959,
    "state": "NH",
    "state_name": "New Hampshire",
    "long": -71.5597,
    "lat": 43.2314,
    "adoption_case": 1,
    "state_num": 29
  },
  {
    "policy_id": "agreementondetainers",
    "adopted_year": 1961,
    "state": "MI",
    "state_name": "Michigan",
    "long": -84.5466,
    "lat": 42.7336,
    "adoption_case": 1,
    "state_num": 21
  },
  {
    "policy_id": "agreementondetainers",
    "adopted_year": 1962,
    "state": "SC",
    "state_name": "South Carolina",
    "long": -81.0353,
    "lat": 34.0007,
    "adoption_case": 1,
    "state_num": 39
  },
  {
    "policy_id": "agreementondetainers",
    "adopted_year": 1963,
    "state": "CA",
    "state_name": "California",
    "long": -121.4871,
    "lat": 38.5737,
    "adoption_case": 1,
    "state_num": 0
  },
  {
    "policy_id": "agreementondetainers",
    "adopted_year": 1963,
    "state": "MT",
    "state_name": "Montana",
    "long": -112.0205,
    "lat": 46.5911,
    "adoption_case": 1,
    "state_num": 14
  },
  {
    "policy_id": "agreementondetainers",
    "adopted_year": 1963,
    "state": "NE",
    "state_name": "Nebraska",
    "long": -97.548,
    "lat": 41.1786,
    "adoption_case": 1,
    "state_num": 28
  },
  {
    "policy_id": "agreementondetainers",
    "adopted_year": 1965,
    "state": "HI",
    "state_name": "Hawaii",
    "long": -157.8219,
    "lat": 21.292,
    "adoption_case": 1,
    "state_num": 30
  },
  {
    "policy_id": "agreementondetainers",
    "adopted_year": 1965,
    "state": "IA",
    "state_name": "Iowa",
    "long": -93.6203,
    "lat": 41.5888,
    "adoption_case": 1,
    "state_num": 33
  },
  {
    "policy_id": "agreementondetainers",
    "adopted_year": 1965,
    "state": "MA",
    "state_name": "Maine",
    "long": -71.0568,
    "lat": 42.3589,
    "adoption_case": 1,
    "state_num": 10
  },
  {
    "policy_id": "agreementondetainers",
    "adopted_year": 1965,
    "state": "MD",
    "state_name": "Maryland",
    "long": -76.5197,
    "lat": 38.9693,
    "adoption_case": 1,
    "state_num": 19
  },
  {
    "policy_id": "agreementondetainers",
    "adopted_year": 1965,
    "state": "NC",
    "state_name": "North Carolina",
    "long": -78.6434,
    "lat": 35.7797,
    "adoption_case": 1,
    "state_num": 9
  },
  {
    "policy_id": "agreementondetainers",
    "adopted_year": 1967,
    "state": "MN",
    "state_name": "Minnesota",
    "long": -93.1027,
    "lat": 44.9446,
    "adoption_case": 1,
    "state_num": 8
  },
  {
    "policy_id": "agreementondetainers",
    "adopted_year": 1967,
    "state": "WA",
    "state_name": "Washington",
    "long": -122.9016,
    "lat": 47.0449,
    "adoption_case": 1,
    "state_num": 4
  },
  {
    "policy_id": "agreementondetainers",
    "adopted_year": 1969,
    "state": "CO",
    "state_name": "Colorado",
    "long": -104.9881,
    "lat": 39.7551,
    "adoption_case": 1,
    "state_num": 5
  },